Address,Neighborhood,Lat,Lon,Value23,Value24,Tax23,Tax24
"1 Algonquin Road Cape Elizabeth, ME 04107",U12,43.5795435,-70.2101953,368400,817500,8230,8718
"1 Arlington Lane Cape Elizabeth, ME 04107",U23,43.599201,-70.2317245,505500,782400,11293,8606
"1 Autumn Tides Lane Cape Elizabeth, ME 04107",R05,43.5920243,-70.2535368,822200,1478800,18368,16267
"1 Avon Road Cape Elizabeth, ME 04107",U12,43.5810901,-70.2126786,454200,1009600,10147,10831
"1 Bacchus Place Cape Elizabeth, ME 04107",R09,43.5865374,-70.2380874,1218100,2515500,27212,27671
"1 Baker Road Cape Elizabeth, ME 04107",U03,43.6300793,-70.227516,508900,962600,11369,10314
"1 Bayberry Lane Cape Elizabeth, ME 04107",U19,43.5825507,-70.2274207,291700,614600,6517,6761
"1 Beacon Lane Cape Elizabeth, ME 04107",U15,43.5647505,-70.2017141,882800,1357400,19722,14590
"1 Birch Knolls Cape Elizabeth, ME 04107",U05,43.6273203,-70.2177667,468100,1249200,10457,13741
"1 Birchwood Road Cape Elizabeth, ME 04107",U03,43.6320739,-70.2262567,290100,827400,6481,8826
"1 Bruce Avenue Cape Elizabeth, ME 04107",U24,43.6060655,-70.2371419,170800,501800,3816,5179
"1 Canter Lane Cape Elizabeth, ME 04107",U23,43.599465,-70.228598,164600,359000,3677,3949
"1 Canterbury Way Cape Elizabeth, ME 04107",U29,43.5970756,-70.2232589,401800,753400,8976,8287
"1 Cape Woods Drive Cape Elizabeth, ME 04107",U33,43.6263995,-70.2330402,276400,700600,6175,7432
"1 Cardinal Lane Cape Elizabeth, ME 04107",R05,43.5960978,-70.2595353,778800,1294400,17398,13963
"1 Caydens Way Cape Elizabeth, ME 04107",U28,43.616667,-70.247072,359200,844100,8025,9285
"1 Cedar Ledge Road Cape Elizabeth, ME 04107",U04,43.6271898,-70.2246955,585400,1183700,13078,12746
"1 Charles E Jordan Road Cape Elizabeth, ME 04107",R08,43.5760874,-70.2510233,179500,389900,4010,4289
"1 Charles Road Cape Elizabeth, ME 04107",U01,43.6329701,-70.2266274,287200,759300,6416,8077
"1 Chesterwood Road Cape Elizabeth, ME 04107",U59,43.5972114,-70.2636747,552600,1144400,12345,12588
"1 Chimney Rock Road Cape Elizabeth, ME 04107",U08,43.613238,-70.2129905,1002800,2195700,22403,23878
"1 City View Road Cape Elizabeth, ME 04107",U03,43.6304328,-70.2273006,304500,762600,6803,8114
"1 Clinton Road Cape Elizabeth, ME 04107",U24,43.6032202,-70.234156,247700,573500,5534,6309
"1 Columbus Road Cape Elizabeth, ME 04107",U32,43.6210674,-70.2342025,325800,676800,7278,7170
"1 Cottage Lane Cape Elizabeth, ME 04107",U05,43.6263578,-70.2165184,374000,1119800,8355,11977
"1 Cove View Road Cape Elizabeth, ME 04107",U56,43.5696759,-70.2115837,841500,1957800,18799,21536
"1 Crescent Road Cape Elizabeth, ME 04107",U02,43.6337514,-70.2252464,198800,693300,4441,7351
"1 Crescent View Ave Cape Elizabeth, ME 04107",U16,43.5693364,-70.2225846,360900,827800,8063,8831
"1 Davis Point Lane Cape Elizabeth, ME 04107",U18,43.5747461,-70.222905,218600,763800,4884,8402
"1 Dean Way Cape Elizabeth, ME 04107",U18,43.5750751,-70.220203,244500,624700,5462,6872
"1 Deer Run Road Cape Elizabeth, ME 04107",R05,43.5975387,-70.2487755,362900,739800,8107,8138
"1 Dermot Drive Cape Elizabeth, ME 04107",U29,43.6218722,-70.2415366,378700,838700,8460,8854
"1 Dipper Road Cape Elizabeth, ME 04107",R04,43.6080886,-70.2576926,296800,762400,6631,8386
"1 Driftwood Lane Cape Elizabeth, ME 04107",R02,43.5864368,-70.2207481,800100,2330800,17874,25364
"1 Elizabeth Road Cape Elizabeth, ME 04107",U03,43.6310426,-70.2246592,578600,1194300,12926,12862
"1 Elmwood Road Cape Elizabeth, ME 04107",U03,43.6318661,-70.2262528,163700,670700,3657,7103
"1 Erie Road Cape Elizabeth, ME 04107",U28,43.6207964,-70.2492043,180900,513800,4041,5377
"1 Farm Hill Road Cape Elizabeth, ME 04107",U21,43.5953772,-70.2335486,144200,391000,3221,4301
"1 Fenway Road Cape Elizabeth, ME 04107",U44,43.5807486,-70.2341189,184200,517000,4115,5412
"1 Fernwood Lane Cape Elizabeth, ME 04107",U34,43.632516,-70.2336524,307500,402700,6870,4430
"1 Franklin Circle Cape Elizabeth, ME 04107",U49,43.6215665,-70.2406968,195700,268500,4372,2679
"1 Garden Lane Cape Elizabeth, ME 04107",U05,43.6275361,-70.2144579,711900,1748400,15904,18924
"1 Gateledge Drive Cape Elizabeth, ME 04107",U50,43.6198841,-70.2308799,474400,1000300,10598,10728
"1 Geldert Lane Cape Elizabeth, ME 04107",U04,43.6265483,-70.2189723,410600,1026100,9173,11287
"1 Glos Way Cape Elizabeth, ME 04107",U49,43.6206495,-70.2420715,699000,1593800,15616,16982
"1 Granite Ridge Road Cape Elizabeth, ME 04107",U50,43.6188206,-70.2277155,1370400,2303400,30614,24788
"1 Great Pond Drive Cape Elizabeth, ME 04107",R06,43.581483,-70.2329347,349600,692600,7810,7618
"1 Hampton Road Cape Elizabeth, ME 04107",U19,43.5817509,-70.2277965,442000,1020600,9874,11226
"1 Harvest Lane Cape Elizabeth, ME 04107",R04,43.6144174,-70.2528645,394200,912900,8806,9767
"1 Headland Lane Cape Elizabeth, ME 04107",U49,43.6199296,-70.2424989,360500,717800,8054,7896
"1 Hemlock Hill Road Cape Elizabeth, ME 04107",U33,43.6251283,-70.2331269,284300,548100,6351,5754
"1 High Bluff Road Cape Elizabeth, ME 04107",U04,43.6268442,-70.2230613,217300,639800,4854,7038
"1 High View Road Cape Elizabeth, ME 04107",U42,43.5848028,-70.2137196,419000,816600,9360,8649
"1 Hunts Point Road Cape Elizabeth, ME 04107",U38,43.5747209,-70.2031146,1759800,5397500,39314,59373
"1 Ivie Road Cape Elizabeth, ME 04107",U04,43.6262247,-70.2219705,322500,887200,7205,9484
"1 Jewett Road Cape Elizabeth, ME 04107",U19,43.5841168,-70.2293801,182900,481400,4086,5295
"1 Ledgewood Lane Cape Elizabeth, ME 04107",U36,43.5753028,-70.2117564,535700,1251000,11968,13486
"1 Legacy Way Cape Elizabeth, ME 04107",U20,43.5887691,-70.2356288,101300,225100,2263,2476
"1 Longfellow Drive Cape Elizabeth, ME 04107",U21,43.595508,-70.2361191,154500,470900,3452,4839
"1 Lydon Lane Cape Elizabeth, ME 04107",U33,43.62639,-70.2354508,808400,1159700,18060,12482
"1 Maiden Cove Lane Cape Elizabeth, ME 04107",U05,43.6277611,-70.2155598,609300,1807700,13612,19610
"1 Manor Way Cape Elizabeth, ME 04107",U30,43.6106232,-70.2215311,778600,1543500,17394,16979
"1 Maplewood Road Cape Elizabeth, ME 04107",U03,43.6314071,-70.2280093,257100,792700,5744,8720
"1 Masefield Terrace Cape Elizabeth, ME 04107",U38,43.5713692,-70.2052246,618300,1398000,13813,15103
"1 Mckenney Point Road Cape Elizabeth, ME 04107",U41,43.5601416,-70.2101441,447400,930000,9995,9955
"1 Meadowview Lane Cape Elizabeth, ME 04107",U31,43.6163076,-70.2322366,326900,651700,7303,6894
"1 Misty Lane Cape Elizabeth, ME 04107",U36,43.5771236,-70.2116446,509800,1374200,11389,15116
"1 Oakview Drive Cape Elizabeth, ME 04107",U25,43.607992,-70.23658,161900,342400,3617,3766
"1 Oakwood Road Cape Elizabeth, ME 04107",U24,43.6049009,-70.2345486,237500,530500,5306,5561
"1 Ocean House Road Cape Elizabeth, ME 04107",U28,43.621819,-70.2491412,258800,1052400,5782,10894
"1 Overlook Lane Cape Elizabeth, ME 04107",U12,43.5844049,-70.2086139,621600,1128800,13887,12073
"1 Peabbles Point Lane Cape Elizabeth, ME 04107",R03,43.5876452,-70.2060058,483600,1134200,10804,12476
"1 Peppergrass Road Cape Elizabeth, ME 04107",U60,43.599447,-70.2558312,664700,1297900,14849,14002
"1 Phantom Farm Road Cape Elizabeth, ME 04107",R03,43.5740982,-70.2168635,416900,907600,9314,9984
"1 Pheasant Hill Road Cape Elizabeth, ME 04107",R04,43.6026044,-70.2480185,227700,505700,5087,5288
"1 Pilot Point Road Cape Elizabeth, ME 04107",U12,43.5790967,-70.2112405,492300,996700,10998,10964
"1 Pine Point Road Cape Elizabeth, ME 04107",U35,43.598957,-70.2377068,368000,669400,8221,7363
"1 Pine Ridge Road Cape Elizabeth, ME 04107",U36,43.5753639,-70.2084195,477200,1030400,10661,11059
"1 Pleasant Valley Ave Cape Elizabeth, ME 04107",U24,43.6053963,-70.2364123,194300,532600,4341,5859
"1 Pond View Road Cape Elizabeth, ME 04107",U18,43.5759105,-70.2221251,217500,591100,4859,6502
"1 Quartz Knob Road Cape Elizabeth, ME 04107",U57,43.6154284,-70.2277928,765000,1537600,17090,16914
"1 Ram Island Farm Road Cape Elizabeth, ME 04107",R09,43.5591229,-70.2663975,638600,830600,14266,9137
"1 Red Oak Drive Cape Elizabeth, ME 04107",U34,43.6323881,-70.2324842,506600,918600,11317,10105
"1 Reef Road Cape Elizabeth, ME 04107",U12,43.5838526,-70.2079442,254000,539200,5674,5931
"1 Roberts Lane Cape Elizabeth, ME 04107",U08,43.6110976,-70.2135925,390600,984400,8726,10828
"1 Rock Crest Drive Cape Elizabeth, ME 04107",U50,43.6161023,-70.2301934,501100,1155100,11195,12431
"1 Rock Wall Lane Cape Elizabeth, ME 04107",U04,43.6253105,-70.2274006,289700,757900,6472,8337
"1 Rocky Point Lane Cape Elizabeth, ME 04107",U14,43.5694,-70.2023378,267700,554900,5980,6104
"1 Roundabout Lane Cape Elizabeth, ME 04107",U36,43.5751365,-70.2087895,490400,1081600,10956,11898
"1 Rugosa Way Cape Elizabeth, ME 04107",U38,43.5733847,-70.2063601,1308000,2673400,29221,29407
"1 Running Tide Road Cape Elizabeth, ME 04107",U38,43.569189,-70.2066649,428000,1044400,9562,11488
"1 Russet Lane Cape Elizabeth, ME 04107",U35,43.596148,-70.2372314,187500,500200,4189,5227
"1 Salt Marsh Way Cape Elizabeth, ME 04107",R05,43.5922901,-70.2651761,323100,683600,7218,7245
"1 Salt Spray Lane Cape Elizabeth, ME 04107",U36,43.5776124,-70.2093788,607200,1937900,13565,21042
"1 Silva Drive Cape Elizabeth, ME 04107",U46,43.6009449,-70.2658851,246000,546400,5496,5735
"1 Singles Road Cape Elizabeth, ME 04107",U08,43.6144222,-70.2131258,1335600,3415900,29837,37300
"1 Smugglers Cove Road Cape Elizabeth, ME 04107",U10,43.6037663,-70.2165151,431200,750200,9633,8252
"1 Spoondrift Lane Cape Elizabeth, ME 04107",U36,43.5779777,-70.2111878,351200,1183900,7846,12748
"1 Starboard Drive Cape Elizabeth, ME 04107",U45,43.5912245,-70.244554,146200,315700,3266,3198
"1 Stephenson Street Cape Elizabeth, ME 04107",U29,43.6232319,-70.2439232,230400,564200,5147,5931
"1 Stirrup Road Cape Elizabeth, ME 04107",U24,43.6045047,-70.2298231,449600,759200,10044,8351
"1 Summit Road Cape Elizabeth, ME 04107",U03,43.6307354,-70.2255306,490500,958800,10958,10272
"1 Sunny Bank Road Cape Elizabeth, ME 04107",U41,43.5597722,-70.2091326,1225300,1857100,27373,20428
"1 Surf Road Cape Elizabeth, ME 04107",U05,43.6257787,-70.2163188,380300,1067900,8496,11472
"1 Tanager Lane Cape Elizabeth, ME 04107",R04,43.609483,-70.2571983,282400,755800,6309,8039
"1 Tanglewood Place Cape Elizabeth, ME 04107",U38,43.5723752,-70.2031467,1614000,4271500,36057,46712
"1 Tiger Lily Lane Cape Elizabeth, ME 04107",U59,43.5985324,-70.2599302,668000,1351600,14923,14868
"1 Village Lane Cape Elizabeth, ME 04107",U45,43.5939354,-70.2430522,370200,675700,8270,7158
"1 Wabun Road Cape Elizabeth, ME 04107",U12,43.5812066,-70.2095329,497000,1165800,11103,12549
"1 Wainwright Drive Cape Elizabeth, ME 04107",U52,43.5941496,-70.2464473,654900,1371400,14630,14810
"1 Warbler Drive Cape Elizabeth, ME 04107",R04,43.6090622,-70.25933,317200,805000,7086,8580
"1 Waterhouse Road Cape Elizabeth, ME 04107",U29,43.6197879,-70.2470749,204900,530300,4577,5558
"1 Wentworth Road Cape Elizabeth, ME 04107",U18,43.5775825,-70.2221411,438900,743700,9805,8181
"1 Westfield Road Cape Elizabeth, ME 04107",U42,43.5825438,-70.2164466,263000,589500,5875,6485
"1 Wildwood Drive Cape Elizabeth, ME 04107",U24,43.6058719,-70.2389235,338300,649700,7558,6872
"1 Wilton Lane Cape Elizabeth, ME 04107",U28,43.6189093,-70.2509996,207100,523900,4627,5488
"1 Windward Way Cape Elizabeth, ME 04107",U05,43.6299344,-70.2215813,122000,133900,2725,1473
"1 Winslow Place Cape Elizabeth, ME 04107",U30,43.6113055,-70.2339098,257500,420800,5753,4354
"1 Young Lane Cape Elizabeth, ME 04107",R04,43.6086854,-70.2696012,359000,790000,8020,8415
"2 Abaco Drive Cape Elizabeth, ME 04107",U33,43.6259548,-70.2277701,541300,1165500,12093,12546
"2 Abbey Lane Cape Elizabeth, ME 04107",U27,43.6124791,-70.2511315,387700,926900,8661,10196
"2 Albion Road Cape Elizabeth, ME 04107",U25,43.6085355,-70.2371292,320400,662400,7158,7011
"2 Algonquin Road Cape Elizabeth, ME 04107",U12,43.5795793,-70.2111414,519000,990200,11594,10551
"2 Ann Arbor Drive Cape Elizabeth, ME 04107",U32,43.6195192,-70.2361392,732100,1115600,16355,12272
"2 Autumn Tides Lane Cape Elizabeth, ME 04107",R05,43.5921403,-70.2519945,890700,1488100,19898,16094
"2 Avon Road Cape Elizabeth, ME 04107",U12,43.5807565,-70.2116388,457800,844100,10227,9010
"2 Baker Road Cape Elizabeth, ME 04107",U03,43.6299361,-70.2280042,337300,852700,7535,9380
"2 Balsam Road Cape Elizabeth, ME 04107",U15,43.5653887,-70.2025516,822000,1271000,18363,13981
"2 Bayberry Lane Cape Elizabeth, ME 04107",U19,43.5829341,-70.2275154,272500,588900,6088,6478
"2 Beach Rose Lane Cape Elizabeth, ME 04107",U17,43.568767,-70.2273606,274100,748800,6123,7962
"2 Beacon Lane Cape Elizabeth, ME 04107",U15,43.5650347,-70.2020703,1461500,2468000,32650,27148
"2 Berman Road Cape Elizabeth, ME 04107",U19,43.5834464,-70.2301652,284900,614200,6365,6481
"2 Beverly Terrace Cape Elizabeth, ME 04107",U28,43.6380596,-70.2385615,240200,572800,5366,6301
"2 Birch Knolls Cape Elizabeth, ME 04107",U05,43.6275433,-70.218111,399000,1079100,8914,11595
"2 Blueberry Road Cape Elizabeth, ME 04107",U34,43.6322062,-70.2346584,353000,768800,7886,8129
"2 Bowery Beach Road Cape Elizabeth, ME 04107",U16,43.5697809,-70.2226402,227900,607000,5091,6677
"2 Brentwood Road Cape Elizabeth, ME 04107",U35,43.5954886,-70.2399484,267900,566000,5985,6226
"2 Brownstone Lane Cape Elizabeth, ME 04107",U33,43.6238427,-70.2324062,363800,687800,8127,7291
"2 Canter Lane Cape Elizabeth, ME 04107",U23,43.6006146,-70.229986,919400,1884200,20539,20726
"2 Canterbury Way Cape Elizabeth, ME 04107",U29,43.5981927,-70.2234396,389300,791300,8697,8429
"2 Cape Woods Drive Cape Elizabeth, ME 04107",U33,43.6264605,-70.2324368,256300,633900,5726,6973
"2 Cardinal Lane Cape Elizabeth, ME 04107",R05,43.5959321,-70.2595159,694400,1709700,15513,18807
"2 Chambers Road Cape Elizabeth, ME 04107",U24,43.6056198,-70.2351861,223200,592200,4986,6514
"2 Channel View Road Cape Elizabeth, ME 04107",U38,43.5740147,-70.206823,839300,2047000,18750,22242
"2 Charles Road Cape Elizabeth, ME 04107",U01,43.6327076,-70.2264267,221900,752200,4957,7933
"2 Cherry Circle Cape Elizabeth, ME 04107",U35,43.5963032,-70.2387088,287700,567500,6427,5968
"2 Clinton Road Cape Elizabeth, ME 04107",U24,43.6035376,-70.2343794,317300,713800,7088,7577
"2 Cloutier Lane Cape Elizabeth, ME 04107",U27,43.6075825,-70.2517313,283700,1441700,6338,15584
"2 Cottage Lane Cape Elizabeth, ME 04107",U05,43.6266692,-70.2167712,455500,1193200,10176,13125
"2 Cove View Road Cape Elizabeth, ME 04107",U56,43.569831,-70.2128875,588200,1333900,13140,14398
"2 Cragmoor Cape Elizabeth, ME 04107",U02,43.6313956,-70.2215615,878600,2165400,19628,23544
"2 Crescent Road Cape Elizabeth, ME 04107",U02,43.6339074,-70.2246332,767700,1781500,17150,19597
"2 Davcarley Road Cape Elizabeth, ME 04107",U25,43.6104112,-70.2387025,220200,537300,4919,5635
"2 Davis Point Lane Cape Elizabeth, ME 04107",U18,43.5741962,-70.221361,810900,1744300,18116,19187
"2 Dean Way Cape Elizabeth, ME 04107",U18,43.5753993,-70.2201746,241100,662300,5386,7010
"2 Dearborn Drive Cape Elizabeth, ME 04107",U22,43.5960899,-70.2359713,317700,579500,7097,6375
"2 Dermot Drive Cape Elizabeth, ME 04107",U29,43.6222659,-70.241795,479400,971900,10710,10416
"2 Dipper Road Cape Elizabeth, ME 04107",R04,43.608415,-70.25737,309200,777700,6908,8555
"2 Elizabeth Road Cape Elizabeth, ME 04107",U03,43.6312142,-70.2243179,441400,951000,9861,10186
"2 Elmwood Road Cape Elizabeth, ME 04107",U03,43.6315686,-70.2259974,244600,792100,5464,8438
"2 Emerald Way Cape Elizabeth, ME 04107",U31,43.6174633,-70.2310605,403700,988400,9019,10872
"2 Erie Road Cape Elizabeth, ME 04107",U28,43.6206949,-70.2497657,226700,547900,5064,5752
"2 Evergreen Circle Cape Elizabeth, ME 04107",U35,43.5977261,-70.2375083,304100,604400,6794,6373
"2 Farm Hill Road Cape Elizabeth, ME 04107",U21,43.5953015,-70.2330416,182500,468300,4077,5151
"2 Fenway Road Cape Elizabeth, ME 04107",U44,43.5805389,-70.2344148,248600,596000,5554,6281
"2 Fernwood Lane Cape Elizabeth, ME 04107",U34,43.6327692,-70.2332989,380700,775100,8505,8251
"2 Fox Hill Road Cape Elizabeth, ME 04107",U24,43.6043732,-70.2320018,603500,840700,13482,8973
"2 Franklin Circle Cape Elizabeth, ME 04107",U49,43.6211311,-70.2407077,456700,862200,10203,9484
"2 Garden Circle Cape Elizabeth, ME 04107",U05,43.627684,-70.214046,1092700,2782700,24411,30335
"2 Gladys Road Cape Elizabeth, ME 04107",U19,43.5814188,-70.228321,196500,511100,4390,5281
"2 Glen Avenue Cape Elizabeth, ME 04107",U02,43.6330207,-70.2246869,247300,743800,5525,8182
"2 Glos Way Cape Elizabeth, ME 04107",U49,43.620679,-70.2427379,843000,1508400,18832,15910
"2 Golden Ridge Lane Cape Elizabeth, ME 04107",U17,43.5703194,-70.223571,1178400,2458000,26326,26488
"2 Gordons Lane Cape Elizabeth, ME 04107",U50,43.6182348,-70.2321177,986800,2124600,22046,22820
"2 Granite Ridge Road Cape Elizabeth, ME 04107",U50,43.619661,-70.2275531,1257400,2379800,28090,26178
"2 Great Pond Drive Cape Elizabeth, ME 04107",R06,43.5815492,-70.2327044,329400,707200,7358,7230
"2 Greenview Drive Cape Elizabeth, ME 04107",R05,43.6260582,-70.2619353,920600,1788400,20566,19122
"2 Grouse Run Drive Cape Elizabeth, ME 04107",R04,43.6121508,-70.2646086,1184800,2327800,26468,25056
"2 Grover Road Cape Elizabeth, ME 04107",U20,43.5851161,-70.2289273,440200,1013600,9834,11150
"2 Hampton Road Cape Elizabeth, ME 04107",U19,43.5817868,-70.2283969,476600,1268200,10648,13950
"2 Harrison Avenue Cape Elizabeth, ME 04107",U29,43.6201275,-70.2478711,191400,518100,4276,5409
"2 Harvest Lane Cape Elizabeth, ME 04107",R04,43.614421,-70.252784,488700,983500,10918,10544
"2 Headland Lane Cape Elizabeth, ME 04107",U49,43.6199228,-70.2417695,335600,703000,7497,7458
"2 Heatherstone Lane Cape Elizabeth, ME 04107",U04,43.6278051,-70.2205748,1630500,2367400,36425,25766
"2 Hemlock Hill Road Cape Elizabeth, ME 04107",U33,43.6254777,-70.233138,325300,617200,7267,6789
"2 Heritage Court Cape Elizabeth, ME 04107",U56,43.5686995,-70.2130129,578100,1427100,12915,15423
"2 Hermit Thrush Road Cape Elizabeth, ME 04107",U04,43.626792,-70.2259555,221600,697400,4951,7396
"2 High View Road Cape Elizabeth, ME 04107",U42,43.585058,-70.2133358,304400,655600,6800,7212
"2 Hockey Pond Road Cape Elizabeth, ME 04107",R05,43.6186543,-70.2152441,231700,634900,5176,6709
"2 Hunts Point Road Cape Elizabeth, ME 04107",U38,43.5741329,-70.2028824,1675400,3165700,37428,34823
"2 Ivie Road Cape Elizabeth, ME 04107",U04,43.6259948,-70.2214388,390500,917400,8724,9816
"2 Jewett Road Cape Elizabeth, ME 04107",U19,43.5839812,-70.2298037,197300,484800,4408,5058
"2 Julie Ann Lane Cape Elizabeth, ME 04107",U11,43.5981927,-70.2234396,583200,1219400,13029,13413
"2 Katahdin Road Cape Elizabeth, ME 04107",U12,43.5810061,-70.2100482,362000,828400,8087,8837
"2 Kenyon Lane Cape Elizabeth, ME 04107",U05,43.6272505,-70.2164713,687000,1603100,15348,17293
"2 Keyes Lane Cape Elizabeth, ME 04107",U05,43.7599522,-69.9762353,742700,1697100,16592,18668
"2 Legacy Way Cape Elizabeth, ME 04107",U20,43.585718,-70.228335,437300,971400,9769,10410
"2 Leighton Farm Road Cape Elizabeth, ME 04107",R05,43.5940394,-70.2534124,446900,812600,9984,8664
"2 Lighthouse Point Road Cape Elizabeth, ME 04107",U15,43.5652212,-70.2011867,702900,1228800,15703,13242
"2 Lindenwood Road Cape Elizabeth, ME 04107",U04,43.6275206,-70.2243632,490300,1189200,10953,12806
"2 Linwood Street Cape Elizabeth, ME 04107",U34,43.6314061,-70.2359233,195400,509000,4365,5324
"2 Locksley Road Cape Elizabeth, ME 04107",U06,43.6216895,-70.2228582,356500,880700,7964,9688
"2 Lydon Lane Cape Elizabeth, ME 04107",U33,43.6264277,-70.2340687,335500,606600,7495,6398
"2 Manor Way Cape Elizabeth, ME 04107",U30,43.6110467,-70.2230791,651200,1171700,14548,12614
"2 Masefield Terrace Cape Elizabeth, ME 04107",U38,43.5708911,-70.204731,581400,1273200,12988,14005
"2 Maxwell Woods Drive Cape Elizabeth, ME 04107",U29,43.619039,-70.244031,363500,817600,8121,8994
"2 Mcauley Road Cape Elizabeth, ME 04107",U49,43.622031,-70.2380204,253600,573400,5665,6307
"2 Mckenney Point Road Cape Elizabeth, ME 04107",U41,43.559748,-70.2098087,711100,1515500,15886,16396
"2 Meadow Way Cape Elizabeth, ME 04107",U21,43.5944937,-70.2357734,181600,477500,4057,4978
"2 Meadowview Lane Cape Elizabeth, ME 04107",U31,43.6157552,-70.2321868,352500,760000,7875,8085
"2 Misty Lane Cape Elizabeth, ME 04107",U36,43.5764742,-70.212098,362700,1065400,8103,11444
"2 Montgomery Terrace Cape Elizabeth, ME 04107",U02,43.632946,-70.224341,532100,1114600,11887,12261
"2 Moonshadow Lane Cape Elizabeth, ME 04107",U33,43.5887691,-70.2356288,306300,554200,6843,5821
"2 Oak Knoll Road Cape Elizabeth, ME 04107",U13,43.5868123,-70.2060773,1115100,2292900,24911,25222
"2 Oakview Drive Cape Elizabeth, ME 04107",U25,43.607908,-70.236523,159400,333300,3561,3666
"2 Oakwood Road Cape Elizabeth, ME 04107",U24,43.6051707,-70.2349645,181100,473900,4046,4938
"2 Ocean Avenue Cape Elizabeth, ME 04107",U17,43.5689497,-70.2232866,323100,849500,7218,9070
"2 Old Ocean House Road Cape Elizabeth, ME 04107",R02,43.5915258,-70.2226454,1447200,2394600,32330,25914
"2 Olde Colony Lane Cape Elizabeth, ME 04107",U09,43.6076405,-70.2174854,570300,876700,12741,9369
"2 Olde Fort Road Cape Elizabeth, ME 04107",U06,43.622836,-70.2170449,243000,715200,5429,7592
"2 Orchard Road Cape Elizabeth, ME 04107",U21,43.5954192,-70.2356268,172300,454600,3849,4726
"2 Park Circle Cape Elizabeth, ME 04107",U54,43.5979154,-70.2717399,763100,1626600,17048,17618
"2 Patricia Drive Cape Elizabeth, ME 04107",U35,43.5953482,-70.2411582,277600,561300,6202,6174
"2 Peppergrass Road Cape Elizabeth, ME 04107",U60,43.6004307,-70.2562208,832900,1506500,18607,16297
"2 Pheasant Hill Road Cape Elizabeth, ME 04107",R04,43.6031299,-70.2478321,309200,659200,6908,6976
"2 Philip Road Cape Elizabeth, ME 04107",U22,43.5967559,-70.2355775,247200,462400,5522,5086
"2 Phoebes Way Cape Elizabeth, ME 04107",R04,43.6091211,-70.2567809,281100,757900,6280,8062
"2 Pine Point Road Cape Elizabeth, ME 04107",U35,43.5990793,-70.2371751,249800,521800,5581,5465
"2 Pine Ridge Road Cape Elizabeth, ME 04107",U36,43.5747118,-70.2083356,487900,1099800,10900,11823
"2 Pleasant Avenue Cape Elizabeth, ME 04107",U27,43.6108006,-70.2495505,233700,541600,5221,5683
"2 Pleasant Valley Ave Cape Elizabeth, ME 04107",U24,43.6049825,-70.2363518,271300,690800,6061,7324
"2 Pond View Road Cape Elizabeth, ME 04107",U18,43.5758976,-70.2216775,230900,576700,5158,6344
"2 Purpoodock Drive Cape Elizabeth, ME 04107",U27,43.6144333,-70.2480559,307000,628600,6858,6915
"2 Rand Road Cape Elizabeth, ME 04107",U22,43.596939,-70.2312733,251800,577600,5625,6354
"2 Roberts Lane Cape Elizabeth, ME 04107",U08,43.6112519,-70.2139826,412100,1262200,9206,13609
"2 Robinhood Road Cape Elizabeth, ME 04107",U06,43.6231845,-70.2185473,555000,917000,12399,10087
"2 Rock Crest Drive Cape Elizabeth, ME 04107",U50,43.6164908,-70.2296094,591600,1364800,13216,14738
"2 Rock Wall Lane Cape Elizabeth, ME 04107",U04,43.6251879,-70.2267702,273200,801300,6103,8539
"2 Rocky Hill Road Cape Elizabeth, ME 04107",U04,43.6254913,-70.220139,480800,1024000,10741,10989
"2 Rocky Knoll Road Cape Elizabeth, ME 04107",U04,43.626998,-70.225412,402800,1003100,8999,10759
"2 Rocky Point Lane Cape Elizabeth, ME 04107",U14,43.5693119,-70.2019131,536500,1224300,11985,13467
"2 Rosewood Drive Cape Elizabeth, ME 04107",U34,43.629354,-70.2333561,535800,836000,11970,8723
"2 Roundabout Lane Cape Elizabeth, ME 04107",U36,43.5748604,-70.2092,415100,967900,9273,10647
"2 Rugosa Way Cape Elizabeth, ME 04107",U38,43.5731584,-70.2072562,852900,2172900,19054,23627
"2 Salt Spray Lane Cape Elizabeth, ME 04107",U36,43.5777704,-70.2088334,1149500,2701100,25680,29712
"2 Scamman Circle Cape Elizabeth, ME 04107",U36,43.5782049,-70.2088185,1695400,3403700,37875,37441
"2 Scott Dyer Road Cape Elizabeth, ME 04107",U21,43.596181,-70.2289953,257000,637400,5741,7011
"2 Sea Barn Road Cape Elizabeth, ME 04107",U08,43.6106944,-70.2148262,514800,1348800,11501,14562
"2 Sea View Avenue Cape Elizabeth, ME 04107",U02,43.6323142,-70.2235824,288800,843000,6452,8998
"2 Seal Cove Lane Cape Elizabeth, ME 04107",U17,43.5685356,-70.2262847,524700,908800,11722,9997
"2 Shaw Farm Road Cape Elizabeth, ME 04107",U34,43.6276432,-70.2348515,443700,652300,9912,6900
"2 Spoondrift Lane Cape Elizabeth, ME 04107",U36,43.5774457,-70.2112364,350800,1022900,7837,10977
"2 Star Road Cape Elizabeth, ME 04107",U22,43.597466,-70.2358492,251200,629700,5612,6652
"2 State Avenue Cape Elizabeth, ME 04107",U28,43.6204834,-70.2488574,130600,467100,2918,4863
"2 Stephenson Street Cape Elizabeth, ME 04107",U29,43.6236253,-70.2439185,178200,502400,3981,5526
"2 Stirrup Road Cape Elizabeth, ME 04107",U24,43.605176,-70.2302521,485600,737400,10848,8111
"2 Stonybrook Road Cape Elizabeth, ME 04107",U03,43.6302302,-70.2215877,456900,1006800,10207,10800
"2 Strout Road Cape Elizabeth, ME 04107",R05,43.6016532,-70.2484596,239100,553900,5341,6093
"2 Summit Road Cape Elizabeth, ME 04107",U03,43.6305891,-70.2258541,504400,1462800,11268,16091
"2 Sunny Bank Road Cape Elizabeth, ME 04107",U41,43.5588309,-70.2084787,1621700,2946500,36229,32137
"2 Surf Side Avenue Cape Elizabeth, ME 04107",U12,43.5817396,-70.2059568,685400,1915700,15312,21073
"2 Sweet Fern Road Cape Elizabeth, ME 04107",U19,43.5822082,-70.2273495,213600,525100,4772,5435
"2 Tall Pine Road Cape Elizabeth, ME 04107",U23,43.5978332,-70.2359995,455900,710600,10185,7542
"2 Tanager Lane Cape Elizabeth, ME 04107",R04,43.6089896,-70.2573767,275800,681900,6161,7226
"2 Tides Edge Road Cape Elizabeth, ME 04107",U08,43.6124215,-70.2137067,711200,1456200,15888,16018
"2 Tiger Lily Lane Cape Elizabeth, ME 04107",U59,43.5986946,-70.2605284,625600,1379900,13976,15179
"2 Todd Road Cape Elizabeth, ME 04107",U11,43.6006069,-70.2184083,564200,1047800,12604,11251
"2 Tucker Lane Cape Elizabeth, ME 04107",R03,43.5880853,-70.2072536,386000,896300,8623,9584
"2 Two Lights Terrace Cape Elizabeth, ME 04107",U15,43.5636637,-70.2022746,264300,575800,5904,6334
"2 Vernon Road Cape Elizabeth, ME 04107",U19,43.5824478,-70.2295901,194700,525500,4350,5506
"2 Wabun Road Cape Elizabeth, ME 04107",U12,43.581499,-70.210272,285200,722400,6371,7671
"2 Wainwright Drive Cape Elizabeth, ME 04107",U52,43.5930679,-70.2457746,372000,1129700,8310,12152
"2 Waterhouse Road Cape Elizabeth, ME 04107",U29,43.6202916,-70.2473624,210300,541800,4698,5613
"2 Waverly Road Cape Elizabeth, ME 04107",U04,43.628149,-70.2231433,331400,778200,7403,8219
"2 Webster Farm Road Cape Elizabeth, ME 04107",R02,43.5892466,-70.2203495,710300,1527300,15868,16800
"2 Wedgewood Road Cape Elizabeth, ME 04107",U32,43.619832,-70.233967,245200,516300,5478,5679
"2 Wheeler Road Cape Elizabeth, ME 04107",U16,43.5717175,-70.2204781,204300,757400,4564,8056
"2 Wildwood Drive Cape Elizabeth, ME 04107",U24,43.6058551,-70.2392362,233000,522300,5205,5745
"2 Windward Way Cape Elizabeth, ME 04107",U05,43.6296292,-70.2197369,2515000,4381000,56185,48191
"2 Winslow Place Cape Elizabeth, ME 04107",U30,43.611362,-70.233903,216200,357600,4830,3934
"2 Woodcrest Road Cape Elizabeth, ME 04107",U04,43.6261123,-70.2272739,335100,802000,7486,8547
"3 Albion Road Cape Elizabeth, ME 04107",U25,43.6090438,-70.2363437,364600,706900,8145,7402
"3 Apple Tree Lane Cape Elizabeth, ME 04107",U58,43.5939894,-70.2577779,750500,1570700,16766,17003
"3 Arlington Lane Cape Elizabeth, ME 04107",U23,43.5995919,-70.2313533,658800,1370300,14718,14798
"3 Autumn Tides Lane Cape Elizabeth, ME 04107",R05,43.5912794,-70.2534841,672800,1147800,15030,12235
"3 Avon Road Cape Elizabeth, ME 04107",U12,43.5808198,-70.2130357,289500,772100,6467,8493
"3 Bacchus Place Cape Elizabeth, ME 04107",R09,43.5557063,-70.2525416,5494600,9530200,122748,104282
"3 Baker Road Cape Elizabeth, ME 04107",U03,43.6298157,-70.2274713,457700,910100,10225,9736
"3 Bayberry Lane Cape Elizabeth, ME 04107",U19,43.5826387,-70.2269455,221400,531600,4946,5573
"3 Bigelow Way Cape Elizabeth, ME 04107",U12,43.5807841,-70.2110558,532300,937400,11892,10311
"3 Birch Knolls Cape Elizabeth, ME 04107",U05,43.6273578,-70.2172571,543000,1061700,12131,11679
"3 Blueberry Road Cape Elizabeth, ME 04107",U34,43.6320992,-70.2341584,264000,402700,5898,4155
"3 Bradford Road Cape Elizabeth, ME 04107",U29,43.6208113,-70.2475658,212900,541400,4756,5955
"3 Bridlepath Way Cape Elizabeth, ME 04107",U06,43.6217995,-70.2218429,349500,889100,7808,9780
"3 Canter Lane Cape Elizabeth, ME 04107",U23,43.6010183,-70.2284896,2443300,5777300,54583,63550
"3 Canterbury Way Cape Elizabeth, ME 04107",U29,43.5974391,-70.2238003,394400,804700,8811,8577
"3 Cape Woods Drive Cape Elizabeth, ME 04107",U33,43.6267129,-70.2321769,254100,615000,5677,6765
"3 Carriage Hill Road Cape Elizabeth, ME 04107",U42,43.584256,-70.2140426,273900,654800,6119,7203
"3 Caydens Way Cape Elizabeth, ME 04107",U28,43.616697,-70.247084,489200,1196000,10929,13156
"3 Cedar Ledge Road Cape Elizabeth, ME 04107",U04,43.6274581,-70.2248726,326600,856300,7296,9144
"3 Chambers Road Cape Elizabeth, ME 04107",U24,43.6059889,-70.2350558,219100,550900,4895,5719
"3 Channel View Road Cape Elizabeth, ME 04107",U38,43.5739899,-70.208112,372600,909400,8324,9728
"3 Charles Road Cape Elizabeth, ME 04107",U01,43.6329272,-70.2268223,217200,748700,4852,8236
"3 Chesterwood Road Cape Elizabeth, ME 04107",U59,43.5973935,-70.2641549,536100,995400,11976,10674
"3 Cheverus Road Cape Elizabeth, ME 04107",U33,43.6223841,-70.2351217,283600,716000,6336,7876
"3 Clinton Road Cape Elizabeth, ME 04107",U24,43.6032969,-70.2337972,206800,517800,4620,5421
"3 Cragmoor Cape Elizabeth, ME 04107",U02,43.631185,-70.2211497,1311000,2539500,29288,27858
"3 Crescent Road Cape Elizabeth, ME 04107",U02,43.6335611,-70.2250404,335000,1000300,7484,10728
"3 Davis Point Lane Cape Elizabeth, ME 04107",U18,43.5744679,-70.2228006,231500,755100,5172,8306
"3 Dean Way Cape Elizabeth, ME 04107",U18,43.5750441,-70.219664,224000,606300,5004,6328
"3 Deer Run Road Cape Elizabeth, ME 04107",R05,43.5974664,-70.2493568,313100,692400,6995,7275
"3 Dermot Drive Cape Elizabeth, ME 04107",U29,43.6220356,-70.2413678,489000,852600,10924,9379
"3 Dipper Road Cape Elizabeth, ME 04107",R04,43.607957,-70.257552,277000,765700,6188,8148
"3 Dyer Pond Road Cape Elizabeth, ME 04107",U51,43.6168632,-70.2157953,746400,1355000,16675,14630
"3 Erie Road Cape Elizabeth, ME 04107",U28,43.6211199,-70.2494504,269400,592000,6018,6512
"3 Farm Hill Road Cape Elizabeth, ME 04107",U21,43.5950935,-70.2335514,149400,449200,3338,4600
"3 Fenway Road Cape Elizabeth, ME 04107",U44,43.5805121,-70.2338306,205600,510700,4593,5343
"3 Fernwood Lane Cape Elizabeth, ME 04107",U34,43.6323725,-70.2333936,396900,798300,8867,8506
"3 Fox Hill Road Cape Elizabeth, ME 04107",U24,43.6039342,-70.2307812,600200,857900,13408,9162
"3 Franklin Circle Cape Elizabeth, ME 04107",U49,43.6419467,-70.2278035,421800,901200,9423,9574
"3 Friar Lane Cape Elizabeth, ME 04107",U06,43.622195,-70.2197165,575700,1023600,12861,10985
"3 Garden Circle Cape Elizabeth, ME 04107",U05,43.627371,-70.2142003,574000,1861900,12823,20481
"3 Gladys Road Cape Elizabeth, ME 04107",U19,43.5808358,-70.2296448,408400,1066000,9124,11314
"3 Glenden Road Cape Elizabeth, ME 04107",U04,43.6255612,-70.2259372,798400,1854400,17836,19848
"3 Glos Way Cape Elizabeth, ME 04107",U49,43.6207984,-70.242123,868000,1435600,19392,15792
"3 Golden Ridge Lane Cape Elizabeth, ME 04107",U17,43.571043,-70.2231254,871800,1975600,19476,21732
"3 Gordons Lane Cape Elizabeth, ME 04107",U50,43.6176228,-70.2316065,799800,2031600,17868,21798
"3 Granite Ridge Road Cape Elizabeth, ME 04107",U50,43.6188434,-70.2271022,1288000,2253000,28774,24784
"3 Graystone Road Cape Elizabeth, ME 04107",U50,43.6157465,-70.2298309,1117200,2330000,24958,25080
"3 Great Pond Drive Cape Elizabeth, ME 04107",R06,43.5815468,-70.2327118,354400,707200,7918,7780
"3 Hampton Road Cape Elizabeth, ME 04107",U19,43.5821692,-70.2279266,501000,1122600,11192,12348
"3 Harriman Farm Road Cape Elizabeth, ME 04107",U31,43.6172284,-70.2342477,561600,1077200,12546,11629
"3 Hawthorn Road Cape Elizabeth, ME 04107",U59,43.5989791,-70.2621855,678700,1549700,15162,17047
"3 Headland Lane Cape Elizabeth, ME 04107",U49,43.619825,-70.242417,379000,684000,8467,7183
"3 Hemlock Hill Road Cape Elizabeth, ME 04107",U33,43.6251663,-70.2327544,321100,662100,7173,7283
"3 Heritage Court Cape Elizabeth, ME 04107",U56,43.5693,-70.2139984,612400,1581900,13681,17401
"3 High Bluff Road Cape Elizabeth, ME 04107",U04,43.6266055,-70.2232449,253500,710400,5663,7539
"3 High View Road Cape Elizabeth, ME 04107",U42,43.5845032,-70.2131968,286300,715000,6396,7524
"3 Hill Way Cape Elizabeth, ME 04107",U22,43.5975114,-70.231569,400100,674100,8938,7415
"3 Hunts Point Road Cape Elizabeth, ME 04107",U38,43.5744516,-70.2036178,2719800,5221300,60760,57159
"3 Ironclad Road Cape Elizabeth, ME 04107",U08,43.6154594,-70.2126358,509700,1060500,11387,11666
"3 Jewett Road Cape Elizabeth, ME 04107",U19,43.5838222,-70.229292,259700,546300,5802,5734
"3 Julie Ann Lane Cape Elizabeth, ME 04107",U11,43.5974391,-70.2238003,403900,728400,9023,7737
"3 Katahdin Road Cape Elizabeth, ME 04107",U12,43.5809146,-70.2106988,404900,803400,9045,8837
"3 Kenyon Lane Cape Elizabeth, ME 04107",U05,43.6274922,-70.2162956,1253500,2669700,28003,29367
"3 Ledgewood Lane Cape Elizabeth, ME 04107",U36,43.5758061,-70.2118321,425600,1152400,9508,12335
"3 Leighton Farm Road Cape Elizabeth, ME 04107",R05,43.594266,-70.252915,117300,264700,2620,2912
"3 Lindenwood Road Cape Elizabeth, ME 04107",U04,43.6279566,-70.2235437,392700,1036900,8773,11131
"3 Locksley Road Cape Elizabeth, ME 04107",U06,43.621713,-70.2223823,334100,792700,7464,8379
"3 Longfellow Drive Cape Elizabeth, ME 04107",U21,43.5953112,-70.2362445,192900,470800,4309,4904
"3 Manter Street Cape Elizabeth, ME 04107",U33,43.6259892,-70.2340869,333500,779400,7450,8298
"3 Maple Lane Cape Elizabeth, ME 04107",U23,43.6002909,-70.2334153,222600,555700,4973,5838
"3 Masefield Terrace Cape Elizabeth, ME 04107",U38,43.5711442,-70.2058488,557400,1276900,12452,14046
"3 Mcauley Road Cape Elizabeth, ME 04107",U49,43.6221591,-70.2373878,261700,595200,5846,6272
"3 Meadow Way Cape Elizabeth, ME 04107",U21,43.5941342,-70.2356083,174400,450500,3896,4681
"3 Meadowview Lane Cape Elizabeth, ME 04107",U31,43.6161285,-70.2328632,444300,874900,9926,9349
"3 Misty Lane Cape Elizabeth, ME 04107",U36,43.5769041,-70.2121994,286500,829400,6400,8848
"3 Mountain View Road Cape Elizabeth, ME 04107",U03,43.6320163,-70.225018,408500,893800,9126,9557
"3 Oak Knoll Road Cape Elizabeth, ME 04107",U13,43.5871642,-70.2052885,1455400,3401500,32514,37142
"3 Oakhurst Road Cape Elizabeth, ME 04107",U04,43.6293291,-70.2216943,668500,1634500,14934,17980
"3 Oakview Drive Cape Elizabeth, ME 04107",U25,43.607799,-70.236488,146900,334700,3282,3407
"3 Oakwood Road Cape Elizabeth, ME 04107",U24,43.6049564,-70.2340895,247100,528700,5520,5816
"3 Ocean Avenue Cape Elizabeth, ME 04107",U17,43.5685388,-70.2237015,300000,654600,6702,6926
"3 Ocean House Road Cape Elizabeth, ME 04107",U28,43.6216743,-70.2492959,315600,934200,7050,9594
"3 Odyssey Lane Cape Elizabeth, ME 04107",R09,43.5942314,-70.2398165,4400,4800,98,52
"3 Olde Colony Lane Cape Elizabeth, ME 04107",U09,43.6083252,-70.2179224,442500,999000,9885,10714
"3 Olde Fort Road Cape Elizabeth, ME 04107",U06,43.6231758,-70.2175675,553600,1031700,12367,11074
"3 Patricia Drive Cape Elizabeth, ME 04107",U35,43.5955391,-70.2403949,152500,497900,3407,5136
"3 Peabbles Cove Road Cape Elizabeth, ME 04107",U42,43.5834378,-70.2157133,507400,1008800,11335,10822
"3 Peabbles Point Lane Cape Elizabeth, ME 04107",R03,43.5880031,-70.2056715,389100,1534100,8692,16600
"3 Penwood Circle Cape Elizabeth, ME 04107",U35,43.5971412,-70.2399068,233100,521500,5207,5462
"3 Peppergrass Road Cape Elizabeth, ME 04107",U60,43.5997534,-70.2552328,758400,1537300,16943,16635
"3 Phantom Farm Road Cape Elizabeth, ME 04107",R03,43.5747344,-70.2161809,914300,1744400,20425,18913
"3 Pheasant Hill Road Cape Elizabeth, ME 04107",R04,43.6026534,-70.2476084,373500,629000,8344,6644
"3 Pilot Point Road Cape Elizabeth, ME 04107",U12,43.5790753,-70.2106638,335700,721900,7500,7941
"3 Pine Point Road Cape Elizabeth, ME 04107",U35,43.5992987,-70.2378897,297100,589500,6637,6210
"3 Pleasant Avenue Cape Elizabeth, ME 04107",U27,43.6112472,-70.2496794,266200,536100,5947,5897
"3 Point Road Cape Elizabeth, ME 04107",U08,43.6102309,-70.2138344,1416200,2774100,31638,30240
"3 Pond View Road Cape Elizabeth, ME 04107",U18,43.5756295,-70.2221503,257700,632000,5757,6677
"3 Ram Light Lane Cape Elizabeth, ME 04107",R03,43.5880425,-70.2085477,618000,1281600,13806,13823
"3 Ramble Road Cape Elizabeth, ME 04107",U23,43.5990791,-70.2326014,241400,575500,5393,5990
"3 Reef Road Cape Elizabeth, ME 04107",U12,43.5840952,-70.2076633,308100,657500,6883,6958
"3 Roberts Lane Cape Elizabeth, ME 04107",U08,43.6114427,-70.2136562,622800,1452900,13913,15707
"3 Robinhood Road Cape Elizabeth, ME 04107",U06,43.6231007,-70.2198986,585300,1074400,13076,11818
"3 Rock Wall Lane Cape Elizabeth, ME 04107",U04,43.6250764,-70.2272242,299500,748100,6691,7954
"3 Rocky Hill Road Cape Elizabeth, ME 04107",U04,43.6256607,-70.2209493,407500,974500,9104,10445
"3 Rocky Point Lane Cape Elizabeth, ME 04107",U14,43.5696943,-70.2021258,302900,504100,6767,5545
"3 Roundabout Lane Cape Elizabeth, ME 04107",U36,43.5753324,-70.2091328,805600,1294000,17997,13959
"3 Running Tide Road Cape Elizabeth, ME 04107",U38,43.5694577,-70.2059473,589400,1365900,13167,14750
"3 Russet Lane Cape Elizabeth, ME 04107",U35,43.596344,-70.2373023,199900,485200,4466,5337
"3 Salt Spray Lane Cape Elizabeth, ME 04107",U36,43.5773102,-70.2092855,463300,1080500,10350,11611
"3 Seal Cove Lane Cape Elizabeth, ME 04107",U17,43.5689971,-70.2264192,317100,673200,7084,7130
"3 Shaw Farm Road Cape Elizabeth, ME 04107",U34,43.6283481,-70.2350732,512200,904600,11443,9676
"3 Silva Drive Cape Elizabeth, ME 04107",U46,43.6010067,-70.265318,231300,501000,5167,5511
"3 Singles Road Cape Elizabeth, ME 04107",U08,43.6146184,-70.2120155,2495700,4879200,55754,53671
"3 South Street Cape Elizabeth, ME 04107",U29,43.6232833,-70.2428057,297700,725100,6651,7701
"3 Spoondrift Lane Cape Elizabeth, ME 04107",U36,43.5780079,-70.2118534,458300,1064400,10238,11433
"3 Spruce Lane Cape Elizabeth, ME 04107",U36,43.5763625,-70.2139764,378100,1078800,8447,11867
"3 Starboard Drive Cape Elizabeth, ME 04107",U45,43.5912886,-70.2444068,184400,323700,4119,3561
"3 Steeplebush Road Cape Elizabeth, ME 04107",U58,43.5941611,-70.2550089,475300,1006000,10618,10791
"3 Stephenson Street Cape Elizabeth, ME 04107",U29,43.6233919,-70.2433841,208800,508000,4665,5313
"3 Sweet Fern Road Cape Elizabeth, ME 04107",U19,43.581811,-70.227257,291900,578400,6521,6087
"3 Sweetsir Road Cape Elizabeth, ME 04107",U19,43.583175,-70.2325317,536500,845400,11985,9024
"3 Tanager Lane Cape Elizabeth, ME 04107",R04,43.6093912,-70.2573459,269100,753700,6012,7950
"3 Thompson Road Cape Elizabeth, ME 04107",U10,43.5887691,-70.2356288,596600,1289100,13328,13905
"3 Todd Road Cape Elizabeth, ME 04107",U10,43.6009521,-70.2182861,320900,787300,7169,8385
"3 Tucker Lane Cape Elizabeth, ME 04107",R03,43.5880485,-70.2076888,265900,887200,5940,9484
"3 Two Lights Road Cape Elizabeth, ME 04107",U18,43.5726923,-70.2203953,212000,562300,4736,5910
"3 Village Lane Cape Elizabeth, ME 04107",U45,43.5934737,-70.2428532,371200,705200,8293,7482
"3 Wabun Road Cape Elizabeth, ME 04107",U12,43.5814324,-70.2091583,294300,678100,6575,7184
"3 Wainwright Drive Cape Elizabeth, ME 04107",U52,43.5935798,-70.2467928,509700,1154100,11387,12420
"3 Warbler Drive Cape Elizabeth, ME 04107",R04,43.6088973,-70.2595722,308100,782600,6883,8334
"3 Waterhouse Road Cape Elizabeth, ME 04107",U29,43.6200103,-70.2470032,234500,532200,5239,5579
"3 Wentworth Road Cape Elizabeth, ME 04107",U18,43.5765483,-70.2220963,316000,712700,7059,7565
"3 Westfield Road Cape Elizabeth, ME 04107",U42,43.5823267,-70.2167019,217800,505300,4866,5558
"3 Wildwood Drive Cape Elizabeth, ME 04107",U24,43.6058217,-70.2395039,262200,555500,5858,5836
"3 Wilton Lane Cape Elizabeth, ME 04107",U28,43.6190255,-70.2512581,222000,491400,4959,5405
"3 Winding Way Cape Elizabeth, ME 04107",U38,43.569871,-70.2080989,431700,885300,9644,9463
"3 Winslow Place Cape Elizabeth, ME 04107",U30,43.611455,-70.233864,242400,385500,5415,4241
"3 Woodcrest Road Cape Elizabeth, ME 04107",U04,43.6264829,-70.2279084,431200,865200,9633,9242
"3 Young Lane Cape Elizabeth, ME 04107",R04,43.6077543,-70.27007,250200,632700,5589,6685
"4 Abaco Drive Cape Elizabeth, ME 04107",U33,43.6256841,-70.2285203,469200,1128400,10482,12412
"4 Algonquin Road Cape Elizabeth, ME 04107",U12,43.5797889,-70.2108193,352100,891600,7866,9533
"4 Ann Arbor Drive Cape Elizabeth, ME 04107",U32,43.6191174,-70.237253,492500,915800,11002,10074
"4 Apple Tree Lane Cape Elizabeth, ME 04107",U58,43.5937724,-70.2569373,587400,1101200,13123,11838
"4 Arlington Lane Cape Elizabeth, ME 04107",U23,43.6003771,-70.2311179,710300,1094000,15868,11759
"4 Atlantic Place Cape Elizabeth, ME 04107",U12,43.5788933,-70.2081795,1936600,3693200,43264,40625
"4 Autumn Tides Lane Cape Elizabeth, ME 04107",R05,43.5915944,-70.252511,266700,512600,5958,5639
"4 Avon Road Cape Elizabeth, ME 04107",U12,43.58079,-70.212253,319600,704900,7140,7479
"4 Baker Road Cape Elizabeth, ME 04107",U03,43.6296686,-70.2279463,439500,908500,9818,9719
"4 Balsam Road Cape Elizabeth, ME 04107",U15,43.565035,-70.203099,156200,527400,3490,5801
"4 Bayberry Lane Cape Elizabeth, ME 04107",U19,43.5829988,-70.2270099,232400,540200,5192,5942
"4 Beacon Lane Cape Elizabeth, ME 04107",U15,43.5646981,-70.2024521,765700,1083100,17106,11639
"4 Belfield Road Cape Elizabeth, ME 04107",U30,43.6130537,-70.2294812,557100,1074700,12446,11547
"4 Berman Road Cape Elizabeth, ME 04107",U19,43.5830539,-70.2300893,210100,534800,4694,5883
"4 Beverly Terrace Cape Elizabeth, ME 04107",U28,43.6380217,-70.2389487,199900,504200,4466,5546
"4 Birch Knolls Cape Elizabeth, ME 04107",U05,43.6278141,-70.2175868,762700,2155800,17039,23439
"4 Blueberry Road Cape Elizabeth, ME 04107",U34,43.6323968,-70.2344372,369700,802700,8259,8555
"4 Boathouse Lane Cape Elizabeth, ME 04107",R03,43.5883335,-70.2089382,413700,1494300,9242,16437
"4 Bradford Road Cape Elizabeth, ME 04107",U29,43.6205201,-70.2477677,182600,508300,4079,5591
"4 Bridlepath Way Cape Elizabeth, ME 04107",U06,43.6221026,-70.2219462,391400,831600,8744,8873
"4 Broad Cove Road Cape Elizabeth, ME 04107",U18,43.573937,-70.21932,180300,631300,4028,6944
"4 Brook Road Cape Elizabeth, ME 04107",U14,43.5679287,-70.201706,440700,1043300,9845,11476
"4 Canterbury Way Cape Elizabeth, ME 04107",U29,43.5989238,-70.2237424,395600,807400,8838,8606
"4 Cape Woods Drive Cape Elizabeth, ME 04107",U33,43.6268439,-70.2321976,249600,523100,5576,5754
"4 Cardinal Lane Cape Elizabeth, ME 04107",R05,43.5959294,-70.2595098,152600,315100,3409,3466
"4 Carriage Hill Road Cape Elizabeth, ME 04107",U42,43.5837072,-70.2140867,286300,683300,6396,7120
"4 Channel View Road Cape Elizabeth, ME 04107",U38,43.573676,-70.2073848,364400,1313400,8141,14447
"4 Charles Road Cape Elizabeth, ME 04107",U01,43.6326494,-70.2266418,243300,787800,5435,8325
"4 Cherry Circle Cape Elizabeth, ME 04107",U35,43.5964558,-70.2383341,252300,623600,5636,6585
"4 Chimney Rock Road Cape Elizabeth, ME 04107",U08,43.6137238,-70.211958,1970300,4197800,44017,46176
"4 City View Road Cape Elizabeth, ME 04107",U03,43.6303087,-70.2268024,400900,969800,8956,10393
"4 Clinton Road Cape Elizabeth, ME 04107",U24,43.6040323,-70.2343462,354500,737400,7920,8111
"4 Cole Field Cape Elizabeth, ME 04107",U53,43.5999291,-70.2664979,496800,1131700,11099,12174
"4 Cottage Farms Road Cape Elizabeth, ME 04107",U03,43.6324263,-70.2248497,294800,883000,6586,9438
"4 Cottage Lane Cape Elizabeth, ME 04107",U05,43.6268806,-70.2165452,627400,1290200,14016,13917
"4 Cove View Road Cape Elizabeth, ME 04107",U56,43.570264,-70.2126082,628400,1603400,14038,17277
"4 Crescent Road Cape Elizabeth, ME 04107",U02,43.6335424,-70.2246005,297600,735100,6648,7811
"4 Crescent View Ave Cape Elizabeth, ME 04107",U16,43.5686966,-70.2218171,367100,697900,8201,7677
"4 Dean Way Cape Elizabeth, ME 04107",U18,43.5753941,-70.2195991,280900,731300,6275,7769
"4 Dermot Drive Cape Elizabeth, ME 04107",U29,43.6224574,-70.2415614,422400,866900,9436,9261
"4 Dipper Road Cape Elizabeth, ME 04107",R04,43.6082901,-70.2572135,298700,777700,6673,8555
"4 Dyer Lane Cape Elizabeth, ME 04107",U15,43.5631263,-70.2012718,347100,1055500,7754,11611
"4 Dyer Pond Road Cape Elizabeth, ME 04107",U51,43.6191609,-70.2179177,807000,1520900,18028,16455
"4 Eastfield Road Cape Elizabeth, ME 04107",U42,43.5827322,-70.2153909,247300,667200,5525,7039
"4 Edgecomb Way Cape Elizabeth, ME 04107",U26,43.6149285,-70.2455388,81500,294700,1821,3242
"4 Elmwood Road Cape Elizabeth, ME 04107",U03,43.6315143,-70.2262788,270100,721800,6034,7940
"4 Erie Road Cape Elizabeth, ME 04107",U28,43.6209903,-70.2497872,212900,534200,4756,5601
"4 Evergreen Circle Cape Elizabeth, ME 04107",U35,43.5976912,-70.2378548,254600,549600,5688,5771
"4 Farm Hill Road Cape Elizabeth, ME 04107",U21,43.5950455,-70.233058,205200,502600,4584,5188
"4 Farms Edge Road Cape Elizabeth, ME 04107",U53,43.5951763,-70.2669653,620900,1306900,13871,14101
"4 Fenway Road Cape Elizabeth, ME 04107",U44,43.5803182,-70.2341794,231800,497900,5178,5477
"4 Fernwood Lane Cape Elizabeth, ME 04107",U34,43.6326461,-70.2329447,394400,721900,8811,7666
"4 Fessenden Road Cape Elizabeth, ME 04107",R03,43.5636661,-70.2159662,248700,816800,5556,8985
"4 Fox Hill Road Cape Elizabeth, ME 04107",U24,43.6053403,-70.2321403,507700,774200,11342,8241
"4 Franklin Circle Cape Elizabeth, ME 04107",U49,43.6210387,-70.2410951,407500,864900,9104,9181
"4 Garden Circle Cape Elizabeth, ME 04107",U05,43.6270183,-70.2126625,1340600,2796700,29949,30489
"4 Gateledge Drive Cape Elizabeth, ME 04107",U50,43.620301,-70.2318804,553900,1051000,12374,11286
"4 Gladys Road Cape Elizabeth, ME 04107",U19,43.5813907,-70.2276653,215900,539200,4823,5931
"4 Glen Avenue Cape Elizabeth, ME 04107",U02,43.6331698,-70.2245004,247100,707100,5520,7778
"4 Glos Way Cape Elizabeth, ME 04107",U49,43.6205877,-70.2427776,847600,1613400,18936,17748
"4 Gordons Lane Cape Elizabeth, ME 04107",U50,43.6181143,-70.2316529,1049800,2229000,23452,23970
"4 Granite Ridge Road Cape Elizabeth, ME 04107",U50,43.6196831,-70.227051,873800,1905200,19520,20958
"4 Great Pond Drive Cape Elizabeth, ME 04107",R06,43.5815718,-70.2326471,320800,686800,7166,7004
"4 Greenview Drive Cape Elizabeth, ME 04107",R05,43.6259791,-70.2619468,969200,1744600,21652,18640
"4 Grover Road Cape Elizabeth, ME 04107",U20,43.5853946,-70.2289748,409600,904200,9150,9946
"4 Hampton Road Cape Elizabeth, ME 04107",U19,43.5821322,-70.2284508,456400,1081000,10196,11342
"4 Hannaford Cove Road Cape Elizabeth, ME 04107",U40,43.5629696,-70.2121569,391500,868200,8746,9275
"4 Harriman Farm Road Cape Elizabeth, ME 04107",U31,43.6165602,-70.23268,299400,730100,6689,7756
"4 Headland Lane Cape Elizabeth, ME 04107",U49,43.6198292,-70.241687,348100,698500,7777,7684
"4 Hemlock Hill Road Cape Elizabeth, ME 04107",U33,43.6254952,-70.2327458,395900,699500,8844,7420
"4 Heritage Court Cape Elizabeth, ME 04107",U56,43.5687735,-70.213884,588400,1514700,13145,16662
"4 Hermit Thrush Road Cape Elizabeth, ME 04107",U04,43.6268628,-70.2259383,221800,691300,4955,7604
"4 High Bluff Road Cape Elizabeth, ME 04107",U04,43.626448,-70.2228835,470900,953400,10520,10212
"4 High View Road Cape Elizabeth, ME 04107",U42,43.5848795,-70.2129995,360400,770500,8051,8201
"4 Hockey Pond Road Cape Elizabeth, ME 04107",R05,43.6186543,-70.2152441,67000,262000,1497,2882
"4 Hunts Point Road Cape Elizabeth, ME 04107",U38,43.5737148,-70.2033562,1267200,2996300,28309,32684
"4 Ironclad Road Cape Elizabeth, ME 04107",U08,43.6154127,-70.21338,284400,1092200,6353,11739
"4 Ivie Road Cape Elizabeth, ME 04107",U04,43.6258873,-70.2218265,500900,1167400,11190,12566
"4 Jewett Road Cape Elizabeth, ME 04107",U19,43.5836766,-70.2297625,232100,497700,5185,5475
"4 Julie Ann Lane Cape Elizabeth, ME 04107",U11,43.5989238,-70.2237424,571000,1377200,12756,15149
"4 Katahdin Road Cape Elizabeth, ME 04107",U12,43.5807171,-70.2098472,458000,922700,10232,9875
"4 Kenyon Lane Cape Elizabeth, ME 04107",U05,43.6273635,-70.2166916,356800,1330500,7971,14361
"4 Kettle Cove Road Cape Elizabeth, ME 04107",U16,43.5698095,-70.2220745,182300,402600,4073,4429
"4 Keyes Lane Cape Elizabeth, ME 04107",U05,43.7599812,-69.9763501,612900,1457500,13692,16033
"4 Ledgewood Lane Cape Elizabeth, ME 04107",U36,43.5753839,-70.212404,547800,1215600,12238,13372
"4 Leighton Farm Road Cape Elizabeth, ME 04107",R05,43.5942909,-70.2536309,153300,274300,3425,2613
"4 Lighthouse Point Road Cape Elizabeth, ME 04107",U15,43.5654979,-70.2016276,569200,1187800,12716,12791
"4 Lindenwood Road Cape Elizabeth, ME 04107",U04,43.6279691,-70.2242573,374100,801500,8357,8542
"4 Maiden Cove Lane Cape Elizabeth, ME 04107",U05,43.6278926,-70.215334,779100,2186400,17405,24050
"4 Maple Lane Cape Elizabeth, ME 04107",U23,43.5999387,-70.2332326,251900,520500,5627,5451
"4 Maplewood Road Cape Elizabeth, ME 04107",U03,43.6316242,-70.2275627,266900,834300,5963,8902
"4 Mares Hollow Lane Cape Elizabeth, ME 04107",U15,43.5625198,-70.2010085,1036600,2470800,23158,26838
"4 Masefield Terrace Cape Elizabeth, ME 04107",U38,43.5707144,-70.2053498,596800,1499000,13333,16214
"4 Maxwell Woods Drive Cape Elizabeth, ME 04107",U29,43.619039,-70.244031,351000,817600,7841,8719
"4 Mcauley Road Cape Elizabeth, ME 04107",U49,43.6222751,-70.2381169,264400,576100,5907,6062
"4 Meadow Way Cape Elizabeth, ME 04107",U21,43.5944516,-70.2355388,160400,425100,3583,4401
"4 Meadowview Lane Cape Elizabeth, ME 04107",U31,43.6156498,-70.2326424,431000,777600,9629,8279
"4 Misty Lane Cape Elizabeth, ME 04107",U36,43.5761545,-70.2125471,416300,1103600,9300,12140
"4 Mountain View Road Cape Elizabeth, ME 04107",U03,43.631825,-70.2243524,515500,891000,11516,9801
"4 Oakview Drive Cape Elizabeth, ME 04107",U25,43.607815,-70.236339,150500,338300,3362,3446
"4 Oakwood Road Cape Elizabeth, ME 04107",U24,43.6054028,-70.2343782,279700,635500,6248,6716
"4 Ocean Avenue Cape Elizabeth, ME 04107",U17,43.5687508,-70.2232343,279200,752200,6237,7999
"4 Old Farm Lane Cape Elizabeth, ME 04107",U34,43.6068812,-70.2834299,929800,1489400,20772,15834
"4 Old Mill Road Cape Elizabeth, ME 04107",R02,43.5871597,-70.2181858,520200,1236200,11622,13598
"4 Old Proprietor Road Cape Elizabeth, ME 04107",R08,43.5584496,-70.267076,1003800,1684600,22425,18531
"4 Old Sea Point Road Cape Elizabeth, ME 04107",R02,43.5839097,-70.2194254,445800,1022600,9959,10974
"4 Olde Colony Lane Cape Elizabeth, ME 04107",U09,43.607687,-70.2181415,353300,763800,7893,8127
"4 Olde Fort Road Cape Elizabeth, ME 04107",U06,43.6227977,-70.2175896,306500,759100,6847,8009
"4 Orchard Road Cape Elizabeth, ME 04107",U21,43.5952973,-70.2354504,178700,480200,3992,5282
"4 Ottawa Road Cape Elizabeth, ME 04107",U02,43.6340133,-70.2254612,279200,707900,6237,7512
"4 Park Circle Cape Elizabeth, ME 04107",U54,43.597339,-70.272164,6900,26200,154,288
"4 Patricia Drive Cape Elizabeth, ME 04107",U35,43.5957194,-70.2410221,334200,631800,7466,6675
"4 Peabbles Cove Road Cape Elizabeth, ME 04107",U42,43.5839186,-70.2159333,445900,829700,9961,8852
"4 Peabbles Point Lane Cape Elizabeth, ME 04107",R03,43.5883335,-70.2089382,497900,1084700,11123,11932
"4 Penny Lane Cape Elizabeth, ME 04107",U19,43.5805065,-70.2281773,430800,980300,9624,10508
"4 Phoebes Way Cape Elizabeth, ME 04107",R04,43.6089687,-70.2568303,298500,753700,6668,8291
"4 Pine Point Road Cape Elizabeth, ME 04107",U35,43.5993445,-70.2372224,268700,580100,6003,6106
"4 Pine Ridge Road Cape Elizabeth, ME 04107",U36,43.5745114,-70.2086386,371500,999600,8299,10655
"4 Pleasant Avenue Cape Elizabeth, ME 04107",U27,43.6109899,-70.2499034,181300,495900,4050,5455
"4 Pond View Road Cape Elizabeth, ME 04107",U18,43.5756253,-70.2216799,212600,650600,4749,7157
"4 Poplar Lane Cape Elizabeth, ME 04107",U59,43.596795,-70.260439,121300,280700,2710,3088
"4 Prout Place Cape Elizabeth, ME 04107",U53,43.5971119,-70.2676352,620700,1283000,13866,14113
"4 Purpoodock Drive Cape Elizabeth, ME 04107",U27,43.6144078,-70.2476489,228200,598700,5098,6245
"4 Rand Road Cape Elizabeth, ME 04107",U22,43.5968859,-70.2315958,214500,522000,4792,5401
"4 Red Oak Drive Cape Elizabeth, ME 04107",U34,43.6328149,-70.2327359,350100,812300,7821,8660
"4 Reef Road Cape Elizabeth, ME 04107",U12,43.5844307,-70.2078984,391100,671800,8737,7390
"4 Robinhood Road Cape Elizabeth, ME 04107",U06,43.6229069,-70.2188267,378200,1058600,8449,11370
"4 Rock Crest Drive Cape Elizabeth, ME 04107",U57,43.6161674,-70.2285394,773800,1662100,17287,18283
"4 Rock Wall Lane Cape Elizabeth, ME 04107",U04,43.6253218,-70.2264642,336100,1031400,7508,11345
"4 Rosewood Drive Cape Elizabeth, ME 04107",U34,43.6297815,-70.2340001,511800,792600,11434,8444
"4 Roundabout Lane Cape Elizabeth, ME 04107",U36,43.5749988,-70.2094786,498100,1140800,11128,12208
"4 Running Tide Road Cape Elizabeth, ME 04107",U38,43.5700027,-70.2059867,577000,1264300,12890,13632
"4 Russet Lane Cape Elizabeth, ME 04107",U35,43.5962983,-70.2378648,195200,469800,4361,4893
"4 Salt Marsh Way Cape Elizabeth, ME 04107",R05,43.5915163,-70.264934,400700,775000,8952,8525
"4 Salt Spray Lane Cape Elizabeth, ME 04107",U36,43.5774594,-70.2087245,2039100,3709500,45553,40805
"4 Sea Star Lane Cape Elizabeth, ME 04107",R02,43.5850957,-70.2197268,380900,631000,8509,6666
"4 Sea View Avenue Cape Elizabeth, ME 04107",U02,43.6323871,-70.2234191,392600,1291700,8771,13868
"4 Shaw Farm Road Cape Elizabeth, ME 04107",U34,43.6279668,-70.2353913,476800,916400,10652,9805
"4 Singles Road Cape Elizabeth, ME 04107",U08,43.6151951,-70.2124933,839800,1390700,18761,15023
"4 Smugglers Cove Road Cape Elizabeth, ME 04107",U10,43.6041334,-70.2163995,453700,856300,10136,9144
"4 South Street Cape Elizabeth, ME 04107",U29,43.6234535,-70.2423635,237600,563100,5308,5919
"4 Spoondrift Lane Cape Elizabeth, ME 04107",U36,43.577543,-70.2116493,380200,1098400,8494,11807
"4 State Avenue Cape Elizabeth, ME 04107",U28,43.6203818,-70.2490049,167100,500700,3733,5233
"4 Sunny Bank Road Cape Elizabeth, ME 04107",U41,43.558757,-70.2091638,2091400,3658100,46722,40239
"4 Surf Side Avenue Cape Elizabeth, ME 04107",U12,43.5817889,-70.2055497,1078300,2535500,24089,27805
"4 Tanager Lane Cape Elizabeth, ME 04107",R04,43.6090096,-70.2575837,261600,513800,5844,5652
"4 Thrasher Road Cape Elizabeth, ME 04107",U32,43.6208639,-70.235417,268200,603400,5992,6362
"4 Trundy Road Cape Elizabeth, ME 04107",U42,43.5802429,-70.2166867,405600,872200,9061,9594
"4 Tucker Lane Cape Elizabeth, ME 04107",R03,43.587943,-70.2074104,346200,809400,7734,8903
"4 Two Lights Terrace Cape Elizabeth, ME 04107",U15,43.5641067,-70.2016927,1264400,3398600,28247,37385
"4 Wabun Road Cape Elizabeth, ME 04107",U12,43.5816406,-70.2099089,365900,902700,8174,9930
"4 Westfield Road Cape Elizabeth, ME 04107",U42,43.5818755,-70.2165829,224700,533100,5020,5589
"4 Wheeler Road Cape Elizabeth, ME 04107",U16,43.571243,-70.221671,5000,4500,112,50
"4 Wildwood Drive Cape Elizabeth, ME 04107",U24,43.605794,-70.2396843,246400,564400,5505,6208
"4 Winding Way Cape Elizabeth, ME 04107",U38,43.5700975,-70.2072293,530900,1219900,11860,13028
"4 Windmill Lane Cape Elizabeth, ME 04107",U26,43.6133306,-70.2421376,181800,495800,4061,5454
"4 Winslow Place Cape Elizabeth, ME 04107",U30,43.61153,-70.23382,236100,421100,5274,4357
"4 Woodcrest Road Cape Elizabeth, ME 04107",U04,43.626116,-70.2275473,296700,735600,6628,7817
"4 Woods Knoll Drive Cape Elizabeth, ME 04107",R02,43.5885608,-70.2215025,719700,1582700,16078,17049
"5 Algonquin Road Cape Elizabeth, ME 04107",U12,43.580344,-70.2089412,409900,982200,9157,10529
"5 Apple Tree Lane Cape Elizabeth, ME 04107",U58,43.5933111,-70.2576943,173600,268500,3878,2679
"5 Arrow Point Road Cape Elizabeth, ME 04107",U04,43.6273155,-70.2258952,245300,759700,5480,8082
"5 Autumn Tides Lane Cape Elizabeth, ME 04107",R05,43.5905033,-70.2528402,1014200,1624100,22657,17427
"5 Avon Road Cape Elizabeth, ME 04107",U12,43.5806261,-70.2132354,511800,1016100,11434,11177
"5 Bayberry Lane Cape Elizabeth, ME 04107",U19,43.5827813,-70.2264603,301600,663300,6738,7296
"5 Beach Bluff Terrace Cape Elizabeth, ME 04107",U10,43.6023473,-70.2175595,388400,793000,8677,8448
"5 Beach Rose Lane Cape Elizabeth, ME 04107",U17,43.5694103,-70.2268726,282500,813700,6311,8676
"5 Beacon Lane Cape Elizabeth, ME 04107",U15,43.5642785,-70.2023322,681800,889200,15231,9440
"5 Birch Knolls Cape Elizabeth, ME 04107",U05,43.6277207,-70.2167731,1026500,3032400,22932,33356
"5 Blueberry Road Cape Elizabeth, ME 04107",U34,43.632323,-70.2339054,356000,735100,7953,8086
"5 Bridlepath Way Cape Elizabeth, ME 04107",U06,43.621821,-70.2213502,416000,975200,9293,10727
"5 Campion Road Cape Elizabeth, ME 04107",U33,43.6222898,-70.2355493,232000,533100,5183,5589
"5 Canter Lane Cape Elizabeth, ME 04107",U23,43.599795,-70.22734,168400,369500,3762,4065
"5 Canterbury Way Cape Elizabeth, ME 04107",U29,43.5978961,-70.2242094,396100,803000,8849,8558
"5 Cape Woods Drive Cape Elizabeth, ME 04107",U33,43.6270147,-70.2318289,256000,558000,5719,6138
"5 Cardinal Lane Cape Elizabeth, ME 04107",R05,43.5960107,-70.259485,453400,820200,10129,8747
"5 Carriage Hill Road Cape Elizabeth, ME 04107",U42,43.5844422,-70.2142805,269300,699600,6016,7355
"5 Cedar Ledge Road Cape Elizabeth, ME 04107",U04,43.6277866,-70.2249552,348400,884600,7783,9731
"5 Chambers Road Cape Elizabeth, ME 04107",U24,43.6060515,-70.2348115,315000,590800,7037,6224
"5 Channel View Road Cape Elizabeth, ME 04107",U38,43.5738812,-70.2084851,439200,1053800,9812,11317
"5 Chesterwood Road Cape Elizabeth, ME 04107",U59,43.597305,-70.2646525,493700,1164400,11029,12533
"5 Chimney Rock Road Cape Elizabeth, ME 04107",U08,43.6133446,-70.2120444,2051500,3461200,45831,37732
"5 Clinton Road Cape Elizabeth, ME 04107",U24,43.6033961,-70.2333987,242000,557700,5406,5860
"5 Cole Field Cape Elizabeth, ME 04107",U53,43.6006684,-70.2672213,531100,1155100,11865,12431
"5 Cottage Lane Cape Elizabeth, ME 04107",U05,43.626727,-70.216094,406100,1117500,9072,12018
"5 Cove View Road Cape Elizabeth, ME 04107",U56,43.5702543,-70.2110013,674300,1786700,15064,19379
"5 Crescent View Ave Cape Elizabeth, ME 04107",U16,43.5688724,-70.2223142,306600,662700,6849,7290
"5 Davcarley Road Cape Elizabeth, ME 04107",U25,43.610327,-70.237472,72600,268100,1622,2949
"5 Davis Point Lane Cape Elizabeth, ME 04107",U18,43.5739734,-70.2227087,299600,855800,6693,9139
"5 Dean Way Cape Elizabeth, ME 04107",U18,43.5750194,-70.2189865,260600,724300,5822,7692
"5 Dermot Drive Cape Elizabeth, ME 04107",U29,43.6222081,-70.2411462,513700,990700,11476,10898
"5 Driftwood Lane Cape Elizabeth, ME 04107",R02,43.585797,-70.2217842,765000,1836700,17090,20204
"5 Dyer Lane Cape Elizabeth, ME 04107",U15,43.5633204,-70.2006785,294400,2047300,6577,22245
"5 Eastfield Road Cape Elizabeth, ME 04107",U42,43.5830722,-70.2154995,251600,651400,5621,7165
"5 Edgecomb Way Cape Elizabeth, ME 04107",U26,43.6149285,-70.2455388,557300,1257800,12450,13561
"5 Fairway Drive Cape Elizabeth, ME 04107",U27,43.6121851,-70.2481731,746300,1579300,16672,17372
"5 Farm Hill Road Cape Elizabeth, ME 04107",U21,43.5948617,-70.2335095,249300,542200,5569,5623
"5 Farms Edge Road Cape Elizabeth, ME 04107",U53,43.5960926,-70.2672984,564000,1315700,12600,14198
"5 Fenway Road Cape Elizabeth, ME 04107",U44,43.5802832,-70.2336218,216000,490000,4825,5390
"5 Fernwood Lane Cape Elizabeth, ME 04107",U34,43.632223,-70.2330667,395600,746800,8838,7940
"5 Fox Hill Road Cape Elizabeth, ME 04107",U24,43.6054085,-70.2309656,496200,760600,11085,8092
"5 Franklin Circle Cape Elizabeth, ME 04107",U49,43.6419387,-70.2279161,397000,868000,8869,9548
"5 Geldert Lane Cape Elizabeth, ME 04107",U04,43.6266705,-70.2192316,483500,1086900,10801,11681
"5 Gladys Road Cape Elizabeth, ME 04107",U19,43.5809746,-70.2282987,325200,662200,7265,7009
"5 Glos Way Cape Elizabeth, ME 04107",U49,43.6208939,-70.2421759,721000,1435600,16108,15792
"5 Granite Ridge Road Cape Elizabeth, ME 04107",U50,43.6188217,-70.22655,1321000,2631600,29512,28948
"5 Graystone Road Cape Elizabeth, ME 04107",U50,43.615357,-70.2299918,1271400,2301000,28404,25312
"5 Great Pond Drive Cape Elizabeth, ME 04107",R06,43.5815392,-70.232232,349600,694800,7810,7642
"5 Grover Road Cape Elizabeth, ME 04107",U20,43.585175,-70.2284427,346200,948400,7734,10432
"5 Hamlin Street Cape Elizabeth, ME 04107",U29,43.6228956,-70.243596,726200,1434200,16224,15226
"5 Hampton Road Cape Elizabeth, ME 04107",U19,43.5824727,-70.2280064,420400,1041800,9392,10910
"5 Hawthorn Road Cape Elizabeth, ME 04107",U59,43.5993614,-70.2625113,688700,1502400,15386,16251
"5 Headland Lane Cape Elizabeth, ME 04107",U49,43.6196061,-70.2422117,364000,703500,8132,7739
"5 Heatherstone Lane Cape Elizabeth, ME 04107",U04,43.6271288,-70.220561,381900,903200,8532,9935
"5 Hemlock Hill Road Cape Elizabeth, ME 04107",U33,43.625205,-70.2323273,435800,681700,9736,7499
"5 Hermit Thrush Road Cape Elizabeth, ME 04107",U04,43.626692,-70.226416,528700,1045300,11811,11498
"5 High Bluff Road Cape Elizabeth, ME 04107",U04,43.6264335,-70.2235049,407400,948900,9101,10163
"5 Hill Way Cape Elizabeth, ME 04107",U22,43.5972686,-70.2314561,202500,497900,4524,5477
"5 Hillcrest Drive Cape Elizabeth, ME 04107",U10,43.6016947,-70.2177626,294200,692700,6572,7279
"5 Ironclad Road Cape Elizabeth, ME 04107",U08,43.6154119,-70.2122113,843100,1089900,18835,11989
"5 Jewett Road Cape Elizabeth, ME 04107",U19,43.5835126,-70.2292616,158300,467200,3536,4798
"5 Jordan Farm Road Cape Elizabeth, ME 04107",U55,43.5651621,-70.2130863,803300,1547900,17946,17027
"5 Julie Ann Lane Cape Elizabeth, ME 04107",U11,43.5978961,-70.2242094,468700,844000,10471,9009
"5 Katahdin Road Cape Elizabeth, ME 04107",U12,43.5804702,-70.2103284,451600,864400,10089,9508
"5 Lawson Road Cape Elizabeth, ME 04107",U08,43.6107548,-70.2153271,615200,1086900,13744,11681
"5 Ledgewood Lane Cape Elizabeth, ME 04107",U36,43.5761359,-70.2114915,493200,1196700,11018,12889
"5 Leighton Farm Road Cape Elizabeth, ME 04107",R05,43.5945589,-70.2530964,467500,926200,10444,9913
"5 Lindenwood Road Cape Elizabeth, ME 04107",U04,43.6283695,-70.2235814,401300,867600,8965,9269
"5 Linwood Street Cape Elizabeth, ME 04107",U34,43.6314871,-70.2363795,118400,444100,2645,4885
"5 Locksley Road Cape Elizabeth, ME 04107",U06,43.6221359,-70.2224783,426400,883100,9526,9714
"5 Longfellow Drive Cape Elizabeth, ME 04107",U21,43.5952391,-70.2364553,195000,471000,4356,5181
"5 Maiden Cove Lane Cape Elizabeth, ME 04107",U05,43.6281544,-70.2152106,1124800,2631600,25128,28673
"5 Masefield Terrace Cape Elizabeth, ME 04107",U38,43.5707067,-70.2065587,437900,1200500,9783,13206
"5 Maxwell Woods Drive Cape Elizabeth, ME 04107",U29,43.619039,-70.244031,371600,839200,8302,8956
"5 Mcauley Road Cape Elizabeth, ME 04107",U49,43.6224763,-70.2375166,217200,547800,4852,6026
"5 Meadowview Lane Cape Elizabeth, ME 04107",U31,43.6159059,-70.2334488,438700,952500,9801,10203
"5 Montgomery Terrace Cape Elizabeth, ME 04107",U02,43.6328508,-70.2239445,623900,1626500,13938,17892
"5 Mountain View Road Cape Elizabeth, ME 04107",U03,43.6318412,-70.2252467,492300,975900,10998,10460
"5 Oakview Drive Cape Elizabeth, ME 04107",U25,43.607888,-70.236192,162900,338100,3639,3719
"5 Oakwood Road Cape Elizabeth, ME 04107",U24,43.605076,-70.2336321,275000,573400,6144,6032
"5 Ocean House Road Cape Elizabeth, ME 04107",U28,43.6215017,-70.2490491,287000,969400,6412,10114
"5 Ocean View Road Cape Elizabeth, ME 04107",U03,43.6312647,-70.2228754,704800,1639600,15746,18036
"5 Old Ocean House Road Cape Elizabeth, ME 04107",R02,43.589371,-70.224923,223600,330400,4995,3634
"5 Old Proprietor Road Cape Elizabeth, ME 04107",R08,43.5583905,-70.2684069,2854600,6179200,63772,67972
"5 Olde Colony Lane Cape Elizabeth, ME 04107",U09,43.6081074,-70.2185296,306900,789500,6856,8393
"5 Orchard Road Cape Elizabeth, ME 04107",U21,43.5949765,-70.2356115,193100,489700,4314,5387
"5 Overlook Lane Cape Elizabeth, ME 04107",U12,43.5838795,-70.209493,1207800,2120000,26982,23045
"5 Park Circle Cape Elizabeth, ME 04107",U54,43.5981219,-70.2731962,543700,1191200,12146,12828
"5 Pearl Street Cape Elizabeth, ME 04107",U22,43.5977846,-70.2272652,580100,942900,12959,10097
"5 Penwood Circle Cape Elizabeth, ME 04107",U35,43.5969885,-70.2402815,319100,578100,7129,6084
"5 Peppergrass Road Cape Elizabeth, ME 04107",U60,43.6001379,-70.2548044,1265400,2739500,28269,30135
"5 Phantom Farm Road Cape Elizabeth, ME 04107",R03,43.57517,-70.215203,138300,531000,3090,5841
"5 Pheasant Hill Road Cape Elizabeth, ME 04107",R04,43.6027675,-70.2472784,269100,633100,6012,6689
"5 Philip Road Cape Elizabeth, ME 04107",U22,43.5964452,-70.234992,243300,506800,5435,5575
"5 Pine Point Road Cape Elizabeth, ME 04107",U35,43.5995506,-70.2378199,307500,571700,6870,6014
"5 Pleasant Avenue Cape Elizabeth, ME 04107",U27,43.6113975,-70.2499554,264500,573400,5909,6307
"5 Pond View Road Cape Elizabeth, ME 04107",U18,43.5753772,-70.2221323,224800,576500,5022,6342
"5 Poplar Lane Cape Elizabeth, ME 04107",U59,43.5965936,-70.2612298,610400,894900,13636,9844
"5 Quartz Knob Road Cape Elizabeth, ME 04107",U57,43.6161576,-70.2273888,567300,1299000,12673,14014
"5 Ramble Road Cape Elizabeth, ME 04107",U23,43.5989177,-70.2329414,292000,651600,6523,6893
"5 Rand Road Cape Elizabeth, ME 04107",U22,43.5971841,-70.2317716,300200,597700,6706,6575
"5 Reef Road Cape Elizabeth, ME 04107",U13,43.5844998,-70.2071668,513500,880900,11472,9690
"5 Rock Crest Drive Cape Elizabeth, ME 04107",U57,43.615136,-70.2287172,710500,1568100,15873,17249
"5 Rocky Knoll Road Cape Elizabeth, ME 04107",U04,43.6273928,-70.2251488,404400,912400,9034,10036
"5 Rocky Point Lane Cape Elizabeth, ME 04107",U14,43.5698306,-70.2019327,325000,669900,7261,7369
"5 Roundabout Lane Cape Elizabeth, ME 04107",U36,43.575604,-70.2094213,328200,852900,7332,9107
"5 Running Tide Road Cape Elizabeth, ME 04107",U38,43.5696866,-70.2048736,503300,1226200,11244,13213
"5 Russet Lane Cape Elizabeth, ME 04107",U35,43.5965899,-70.2373521,201100,502100,4493,5523
"5 Salt Marsh Way Cape Elizabeth, ME 04107",R05,43.5915104,-70.2661295,569800,898200,12729,9605
"5 Scott Dyer Road Cape Elizabeth, ME 04107",U22,43.5964806,-70.2298941,83200,267100,1859,2938
"5 Sea Barn Road Cape Elizabeth, ME 04107",U08,43.610313,-70.2153303,2452500,5773200,54789,63505
"5 Sea View Avenue Cape Elizabeth, ME 04107",U02,43.6326975,-70.2236897,639300,1712700,14282,18523
"5 Silva Drive Cape Elizabeth, ME 04107",U46,43.599566,-70.2642017,515000,1000400,11505,11004
"5 Spoondrift Lane Cape Elizabeth, ME 04107",U36,43.5777433,-70.2123868,388500,1065300,8679,11443
"5 Spruce Lane Cape Elizabeth, ME 04107",U36,43.5761633,-70.2137135,390600,1064900,8726,11714
"5 Star Road Cape Elizabeth, ME 04107",U22,43.5971842,-70.2353336,221700,512700,4953,5365
"5 Starboard Drive Cape Elizabeth, ME 04107",U45,43.5913106,-70.2443379,183900,321900,4108,3541
"5 State Avenue Cape Elizabeth, ME 04107",U28,43.6204577,-70.2494975,175300,530200,3916,5557
"5 Steeplebush Road Cape Elizabeth, ME 04107",U58,43.5943117,-70.2543204,565000,1379500,12622,15175
"5 Surf Road Cape Elizabeth, ME 04107",U05,43.6259979,-70.2159841,401200,1253100,8963,13509
"5 Susan Road Cape Elizabeth, ME 04107",U43,43.5776394,-70.2420619,205300,530500,4586,5836
"5 Sweet Fern Road Cape Elizabeth, ME 04107",U19,43.5818968,-70.2267316,180400,597600,4030,6299
"5 Tanager Lane Cape Elizabeth, ME 04107",R04,43.6093559,-70.2577293,291200,746200,6505,8208
"5 Thrasher Road Cape Elizabeth, ME 04107",U32,43.6214385,-70.2352559,343900,738900,7683,7853
"5 Tote Road Cape Elizabeth, ME 04107",U27,43.6102349,-70.2519566,465300,900900,10395,9635
"5 Vernon Road Cape Elizabeth, ME 04107",U19,43.5827481,-70.2300141,229100,544300,5118,5987
"5 Wabun Road Cape Elizabeth, ME 04107",U12,43.5817168,-70.2086231,308000,743000,6881,7898
"5 Wainwright Drive Cape Elizabeth, ME 04107",U52,43.5930983,-70.2471361,526600,1192900,11764,12968
"5 Warbler Drive Cape Elizabeth, ME 04107",R04,43.6088793,-70.2589988,318800,755400,7122,8034
"5 Waterhouse Road Cape Elizabeth, ME 04107",U29,43.620368,-70.2468173,212100,507300,4738,5305
"5 Waumbek Road Cape Elizabeth, ME 04107",U12,43.5828538,-70.207812,253800,658000,5670,6963
"5 Wentworth Road Cape Elizabeth, ME 04107",U18,43.5772794,-70.2230492,191800,517700,4285,5695
"5 Westfield Road Cape Elizabeth, ME 04107",U42,43.582109,-70.2169348,201500,569400,4502,5988
"5 Wheeler Road Cape Elizabeth, ME 04107",U18,43.5717566,-70.2211198,346600,782800,7743,8611
"5 Wildwood Drive Cape Elizabeth, ME 04107",U24,43.6057782,-70.2398541,287900,626300,6432,6614
"5 Wilton Lane Cape Elizabeth, ME 04107",U28,43.6190028,-70.251627,193600,505200,4325,5282
"5 Winding Way Cape Elizabeth, ME 04107",U38,43.5694936,-70.207859,481500,1251500,10757,13492
"5 Winslow Place Cape Elizabeth, ME 04107",U30,43.611857,-70.2336739,221600,347100,4951,3543
"5 Wood Road Cape Elizabeth, ME 04107",U04,43.6265636,-70.2186378,493700,991600,11029,10633
"6 Abaco Drive Cape Elizabeth, ME 04107",U33,43.6256372,-70.2288568,517700,1209700,11565,13032
"6 Albion Road Cape Elizabeth, ME 04107",U25,43.6094033,-70.237356,476800,882200,10652,9704
"6 Alexander Drive Cape Elizabeth, ME 04107",R04,43.6112575,-70.254409,339700,727600,7589,7729
"6 Algonquin Road Cape Elizabeth, ME 04107",U12,43.5799812,-70.2104113,309700,847800,6919,9051
"6 Angell Point Road Cape Elizabeth, ME 04107",U41,43.5598229,-70.2113573,917800,1133500,20504,12194
"6 Apple Tree Lane Cape Elizabeth, ME 04107",U58,43.59354,-70.257252,110600,495900,2471,5455
"6 Arrow Point Road Cape Elizabeth, ME 04107",U04,43.6276136,-70.2260341,473600,1338500,10580,14366
"6 Avon Road Cape Elizabeth, ME 04107",U12,43.5805625,-70.2125244,505900,967900,11302,10372
"6 Bayberry Lane Cape Elizabeth, ME 04107",U19,43.5831618,-70.2265249,259200,571200,5791,6008
"6 Beacon Lane Cape Elizabeth, ME 04107",U15,43.5643926,-70.2027739,560300,899200,12517,9616
"6 Beverly Terrace Cape Elizabeth, ME 04107",U28,43.6380326,-70.2388215,172500,515600,3854,5397
"6 Blueberry Road Cape Elizabeth, ME 04107",U34,43.6329411,-70.2338603,109000,262400,2435,2886
"6 Boathouse Lane Cape Elizabeth, ME 04107",R03,43.5883335,-70.2089382,338800,1560600,7569,17167
"6 Bowery Beach Road Cape Elizabeth, ME 04107",U16,43.5693249,-70.2229444,260000,699800,5808,7698
"6 Brentwood Road Cape Elizabeth, ME 04107",U35,43.5957946,-70.2399088,288300,548800,6441,5762
"6 Bridlepath Way Cape Elizabeth, ME 04107",U06,43.6222631,-70.2213102,426100,920500,9519,9851
"6 Campion Road Cape Elizabeth, ME 04107",U33,43.6223329,-70.2360596,200000,489700,4468,5112
"6 Canterbury Way Cape Elizabeth, ME 04107",U29,43.5990948,-70.2238397,300600,657800,6715,7236
"6 Cap Elliot Road Cape Elizabeth, ME 04107",U14,43.5654721,-70.206417,260200,516100,5813,5677
"6 Cape Woods Drive Cape Elizabeth, ME 04107",U33,43.6271207,-70.2317308,255900,559700,5717,5882
"6 Carriage Hill Road Cape Elizabeth, ME 04107",U42,43.5839976,-70.2144616,323200,740600,7220,7872
"6 Chambers Road Cape Elizabeth, ME 04107",U24,43.605695,-70.2347197,218100,572900,4872,6027
"6 Channel View Road Cape Elizabeth, ME 04107",U38,43.5736169,-70.2078025,366600,1300400,8190,14304
"6 Charles Road Cape Elizabeth, ME 04107",U01,43.6325784,-70.2269235,163300,700100,3648,7426
"6 Cherry Circle Cape Elizabeth, ME 04107",U35,43.596708,-70.2382804,248700,559300,5556,6152
"6 Clinton Road Cape Elizabeth, ME 04107",U24,43.6036507,-70.2338992,358200,708100,8002,7514
"6 Cottage Lane Cape Elizabeth, ME 04107",U05,43.6270438,-70.2164079,363100,942600,8112,10094
"6 Cove View Road Cape Elizabeth, ME 04107",U56,43.5710119,-70.2121361,612800,1506700,13690,16299
"6 Cranbrook Drive Cape Elizabeth, ME 04107",U30,43.6098744,-70.2247706,442500,1109900,9885,12209
"6 Crescent View Ave Cape Elizabeth, ME 04107",U16,43.568263,-70.2222942,276900,666200,6186,7053
"6 Dawe Road Cape Elizabeth, ME 04107",U27,43.6131229,-70.2506009,352900,642800,7884,6796
"6 Dean Way Cape Elizabeth, ME 04107",U18,43.575381,-70.2190153,373700,751000,8348,8261
"6 Dearborn Drive Cape Elizabeth, ME 04107",U22,43.5963796,-70.2360448,233000,570300,5205,5998
"6 Deep Brook Road Cape Elizabeth, ME 04107",U06,43.624963,-70.2186883,310900,768300,6946,8451
"6 Dipper Road Cape Elizabeth, ME 04107",R04,43.6080354,-70.2570127,301800,782400,6742,8606
"6 Dyer Lane Cape Elizabeth, ME 04107",U15,43.5629807,-70.2010314,350000,968700,7819,10315
"6 Dyer Pond Road Cape Elizabeth, ME 04107",U51,43.6179619,-70.2177928,738100,1289100,16489,13905
"6 Eastfield Road Cape Elizabeth, ME 04107",U42,43.5828889,-70.2149804,262500,651700,5864,7169
"6 Evergreen Circle Cape Elizabeth, ME 04107",U35,43.5974291,-70.238043,318500,614800,7115,6488
"6 Farm Hill Road Cape Elizabeth, ME 04107",U21,43.5948654,-70.2330078,191000,477500,4267,4978
"6 Fenway Road Cape Elizabeth, ME 04107",U44,43.5800866,-70.2339662,196300,502600,4385,5529
"6 Fox Hill Road Cape Elizabeth, ME 04107",U24,43.606552,-70.232443,505100,784400,11284,8628
"6 Franklin Circle Cape Elizabeth, ME 04107",U49,43.6416648,-70.2278942,451800,977500,10093,10478
"6 Gateledge Drive Cape Elizabeth, ME 04107",U50,43.6205908,-70.2312478,476800,891400,10652,9530
"6 Gladys Road Cape Elizabeth, ME 04107",U19,43.5813382,-70.2271563,221900,525300,4957,5778
"6 Glen Avenue Cape Elizabeth, ME 04107",U02,43.6332858,-70.2243204,292900,764100,6543,8130
"6 Glos Way Cape Elizabeth, ME 04107",U49,43.621012,-70.2426009,696000,1437600,15548,15264
"6 Granite Ridge Road Cape Elizabeth, ME 04107",U50,43.619822,-70.2264019,1197000,2063400,26740,22148
"6 Great Pond Drive Cape Elizabeth, ME 04107",R06,43.5815369,-70.2321632,354400,689200,7918,7582
"6 Grouse Run Drive Cape Elizabeth, ME 04107",R04,43.6119071,-70.2654898,1541400,2297000,34434,24718
"6 Hamlin Street Cape Elizabeth, ME 04107",U29,43.6229665,-70.2429496,844600,1504800,18868,16552
"6 Hampton Road Cape Elizabeth, ME 04107",U19,43.5825118,-70.2284983,492600,1104600,11004,11600
"6 Harriman Farm Road Cape Elizabeth, ME 04107",U31,43.6166394,-70.2336202,528800,882900,11813,9437
"6 Harrison Avenue Cape Elizabeth, ME 04107",U29,43.6199637,-70.2475286,178300,435900,3983,4520
"6 Headland Lane Cape Elizabeth, ME 04107",U49,43.6195025,-70.2414191,349200,703000,7801,7458
"6 Hemlock Hill Road Cape Elizabeth, ME 04107",U33,43.6255514,-70.2323848,352800,578100,7882,6359
"6 Hermit Thrush Road Cape Elizabeth, ME 04107",U04,43.6270183,-70.2260609,238500,718100,5328,7899
"6 High Bluff Road Cape Elizabeth, ME 04107",U04,43.6262186,-70.2231678,358600,843600,8011,9005
"6 High View Road Cape Elizabeth, ME 04107",U42,43.5846781,-70.2126076,325300,805200,7267,8582
"6 Hillcrest Drive Cape Elizabeth, ME 04107",U10,43.601328,-70.2177962,504200,921000,11264,9856
"6 Hockey Pond Road Cape Elizabeth, ME 04107",R05,43.6186543,-70.2152441,279000,644300,6233,7087
"6 Hunts Point Road Cape Elizabeth, ME 04107",U38,43.5682498,-70.2122912,1911800,3925200,42710,42902
"6 Jewett Road Cape Elizabeth, ME 04107",U19,43.5833739,-70.2297246,233900,509200,5225,5326
"6 Jordan Farm Road Cape Elizabeth, ME 04107",U55,43.5659104,-70.2132117,569700,1364900,12727,14739
"6 Juniper Lane Cape Elizabeth, ME 04107",U23,43.5986393,-70.2351906,234500,502300,5239,5250
"6 Lawson Road Cape Elizabeth, ME 04107",U08,43.6110957,-70.2153155,366100,916500,8179,9807
"6 Leighton Farm Road Cape Elizabeth, ME 04107",R05,43.5945524,-70.2537401,378300,852000,8451,9372
"6 Lindenwood Road Cape Elizabeth, ME 04107",U04,43.6284261,-70.2242065,488400,982600,10911,10809
"6 Linwood Street Cape Elizabeth, ME 04107",U34,43.6310451,-70.2362134,270200,573500,6036,5990
"6 Littlejohn Road Cape Elizabeth, ME 04107",U06,43.6235156,-70.2177192,455000,920100,10165,9846
"6 Locksley Road Cape Elizabeth, ME 04107",U06,43.62192,-70.2229225,391200,907200,8739,9704
"6 Manor Way Cape Elizabeth, ME 04107",U30,43.6119253,-70.2230418,614200,1267500,13721,13668
"6 Manter Street Cape Elizabeth, ME 04107",U33,43.6253262,-70.2342888,287500,621200,6423,6833
"6 Mares Hollow Lane Cape Elizabeth, ME 04107",U15,43.5623047,-70.2013875,1285300,2640900,28714,29050
"6 Masefield Terrace Cape Elizabeth, ME 04107",U38,43.5704768,-70.2061754,512900,1152600,11458,12679
"6 Maxwell Woods Drive Cape Elizabeth, ME 04107",U29,43.619039,-70.244031,363300,815000,8116,8965
"6 Mcauley Road Cape Elizabeth, ME 04107",U49,43.6225714,-70.2381973,232400,544600,5192,5991
"6 Meadow Way Cape Elizabeth, ME 04107",U21,43.5943773,-70.2352916,188100,455900,4202,5015
"6 Meadowview Lane Cape Elizabeth, ME 04107",U31,43.6154655,-70.233134,459500,787800,10265,8666
"6 Mountain View Road Cape Elizabeth, ME 04107",U03,43.6317696,-70.224569,448500,971300,10019,10409
"6 Oakview Drive Cape Elizabeth, ME 04107",U25,43.6076145,-70.2361298,150400,338200,3360,3720
"6 Oakwood Road Cape Elizabeth, ME 04107",U24,43.605519,-70.2337032,226700,486400,5064,5075
"6 Olde Colony Lane Cape Elizabeth, ME 04107",U09,43.6076047,-70.2187591,346600,772200,7743,8219
"6 Orchard Road Cape Elizabeth, ME 04107",U21,43.5952162,-70.2353065,169500,475900,3787,4894
"6 Patricia Drive Cape Elizabeth, ME 04107",U35,43.5956233,-70.2413145,250500,553200,5596,5810
"6 Peabbles Point Lane Cape Elizabeth, ME 04107",R03,43.5883335,-70.2089382,351300,1025200,7848,11277
"6 Phantom Farm Road Cape Elizabeth, ME 04107",R03,43.5762979,-70.215458,853300,1457100,19063,16028
"6 Pheasant Hill Road Cape Elizabeth, ME 04107",R04,43.6032293,-70.2473847,431200,787100,9633,8383
"6 Philip Road Cape Elizabeth, ME 04107",U22,43.5967853,-70.2351877,245300,510500,5480,5341
"6 Phoebes Way Cape Elizabeth, ME 04107",R04,43.6087386,-70.2569699,267100,760700,5967,8093
"6 Pine Point Road Cape Elizabeth, ME 04107",U35,43.5994582,-70.236911,317600,538900,7095,5928
"6 Pine Ridge Road Cape Elizabeth, ME 04107",U36,43.574281,-70.2089874,440000,1056300,9830,11344
"6 Pleasant Avenue Cape Elizabeth, ME 04107",U27,43.611145,-70.250219,229500,586300,5127,6449
"6 Point Road Cape Elizabeth, ME 04107",U08,43.6099701,-70.2132743,1383400,3494100,30905,38435
"6 Pond View Road Cape Elizabeth, ME 04107",U18,43.5753944,-70.2216799,237100,550800,5297,6059
"6 Prout Place Cape Elizabeth, ME 04107",U53,43.596962,-70.268078,121800,1372900,2721,15102
"6 Reef Road Cape Elizabeth, ME 04107",U13,43.5848376,-70.2076083,485200,850300,10839,9078
"6 Robinhood Road Cape Elizabeth, ME 04107",U06,43.622639,-70.2192404,409800,911900,9155,9756
"6 Rocky Hill Road Cape Elizabeth, ME 04107",U04,43.6252874,-70.2212602,414600,953200,9262,10210
"6 Rocky Knoll Road Cape Elizabeth, ME 04107",U04,43.627135,-70.2255447,254000,812600,5674,8939
"6 Rocky Point Lane Cape Elizabeth, ME 04107",U14,43.5696591,-70.2012933,1400800,2926900,31294,32196
"6 Rosewood Drive Cape Elizabeth, ME 04107",U34,43.6302193,-70.2343681,478300,750200,10685,7873
"6 Roundabout Lane Cape Elizabeth, ME 04107",U36,43.5747512,-70.2098746,424600,1024900,9486,10933
"6 Running Tide Road Cape Elizabeth, ME 04107",U38,43.5702622,-70.2051902,593300,1366300,13254,15029
"6 Russet Lane Cape Elizabeth, ME 04107",U35,43.5965271,-70.2377991,271800,634800,6072,6983
"6 Salt Spray Lane Cape Elizabeth, ME 04107",U36,43.5771612,-70.208634,1299700,3063800,29035,33605
"6 Sea View Avenue Cape Elizabeth, ME 04107",U02,43.633696,-70.2226761,398800,1402300,8909,15425
"6 Silva Drive Cape Elizabeth, ME 04107",U46,43.6014666,-70.265308,194700,514800,4350,5388
"6 Southwell Road Cape Elizabeth, ME 04107",U33,43.6221508,-70.2369436,215900,531000,4823,5566
"6 Spoondrift Lane Cape Elizabeth, ME 04107",U36,43.5773649,-70.2121819,504100,1118100,11262,12299
"6 Star Road Cape Elizabeth, ME 04107",U22,43.5975438,-70.2354852,240200,517600,5366,5419
"6 State Avenue Cape Elizabeth, ME 04107",U28,43.6202625,-70.2491069,144600,475100,3230,4951
"6 Stephenson Street Cape Elizabeth, ME 04107",U29,43.6238973,-70.2434403,266100,587200,5945,6184
"6 Stonybrook Road Cape Elizabeth, ME 04107",U03,43.6301775,-70.2219996,483900,1019000,10810,11209
"6 Sunny Bank Road Cape Elizabeth, ME 04107",U41,43.5587748,-70.2099062,2642400,4956200,59031,54243
"6 Susan Road Cape Elizabeth, ME 04107",U43,43.5777427,-70.2414836,209300,580500,4676,6166
"6 Sweet Fern Road Cape Elizabeth, ME 04107",U19,43.5822879,-70.2268535,286200,559300,6394,5877
"6 Sweetsir Road Cape Elizabeth, ME 04107",U19,43.5836216,-70.2325123,196100,463600,4381,4825
"6 Tanager Lane Cape Elizabeth, ME 04107",R04,43.6089771,-70.2577556,259500,652900,5797,6907
"6 Tiger Lily Lane Cape Elizabeth, ME 04107",U60,43.5997994,-70.2599477,939500,1661200,20988,18273
"6 Tucker Lane Cape Elizabeth, ME 04107",R03,43.5878145,-70.2075537,339300,926600,7580,10193
"6 Two Lights Terrace Cape Elizabeth, ME 04107",U15,43.5644781,-70.2011632,1383300,1788100,30903,19669
"6 Wabun Road Cape Elizabeth, ME 04107",U12,43.5817681,-70.2095758,351600,777000,7855,8272
"6 Waterhouse Road Cape Elizabeth, ME 04107",U29,43.6207307,-70.2471526,195900,543400,4376,5977
"6 Waumbek Road Cape Elizabeth, ME 04107",U12,43.5831803,-70.2069255,481000,965000,10746,10340
"6 Webster Farm Road Cape Elizabeth, ME 04107",R02,43.5899867,-70.2191863,1050800,1523900,23475,16763
"6 Westfield Road Cape Elizabeth, ME 04107",U42,43.5816308,-70.2167184,217800,529200,4866,5480
"6 Wheeler Road Cape Elizabeth, ME 04107",U16,43.5712177,-70.2212299,514600,845900,11496,9030
"6 Wildwood Drive Cape Elizabeth, ME 04107",U24,43.605632,-70.2402,248500,598500,5551,6309
"6 Winding Way Cape Elizabeth, ME 04107",U38,43.5697166,-70.2069403,455000,1111200,10165,11948
"6 Winslow Place Cape Elizabeth, ME 04107",U30,43.611821,-70.233569,224300,383200,5011,4215
"6 Wood Road Cape Elizabeth, ME 04107",U04,43.6263241,-70.2179922,230700,966200,5154,10628
"6 Woodcrest Road Cape Elizabeth, ME 04107",U04,43.6262064,-70.2282969,373300,851400,8340,9090
"7 Abaco Drive Cape Elizabeth, ME 04107",U33,43.6259862,-70.2294322,583000,1309200,13024,14126
"7 Albion Road Cape Elizabeth, ME 04107",U25,43.6084109,-70.236737,373700,776700,8348,8269
"7 Algonquin Road Cape Elizabeth, ME 04107",U12,43.5806073,-70.2086667,335100,853400,7486,9387
"7 Apple Tree Lane Cape Elizabeth, ME 04107",U58,43.593116,-70.257705,145000,268500,3239,2569
"7 Arrow Point Road Cape Elizabeth, ME 04107",U04,43.6273166,-70.2262987,200600,759400,4481,8353
"7 Aster Lane Cape Elizabeth, ME 04107",U29,43.6228916,-70.2423036,432900,778900,9671,8568
"7 Avon Road Cape Elizabeth, ME 04107",U12,43.5803171,-70.2136566,724100,957400,16176,10256
"7 Bay View Road Cape Elizabeth, ME 04107",U03,43.6313109,-70.2251754,455600,996800,10178,10690
"7 Bayberry Lane Cape Elizabeth, ME 04107",U19,43.5829045,-70.2258792,262900,574700,5873,6047
"7 Birch Knolls Cape Elizabeth, ME 04107",U05,43.6277565,-70.2169132,581200,1678800,12984,18192
"7 Birchwood Road Cape Elizabeth, ME 04107",U03,43.631855,-70.2261624,459000,800900,10254,8810
"7 Brentwood Road Cape Elizabeth, ME 04107",U35,43.595951,-70.2392984,315600,619200,7051,6536
"7 Bridlepath Way Cape Elizabeth, ME 04107",U06,43.6219535,-70.2207528,353500,966300,7897,10351
"7 Brook Road Cape Elizabeth, ME 04107",U14,43.5682236,-70.2007527,1745600,2340200,38997,25742
"7 Campion Road Cape Elizabeth, ME 04107",U33,43.6225182,-70.2356578,220300,538200,4922,5645
"7 Canterbury Way Cape Elizabeth, ME 04107",U29,43.59925,-70.224478,365900,636400,8174,6725
"7 Cape Woods Drive Cape Elizabeth, ME 04107",U33,43.627339,-70.2313324,242800,502100,5424,5248
"7 Cedar Ledge Road Cape Elizabeth, ME 04107",U04,43.6280355,-70.2249084,427900,949100,9559,10165
"7 Channel View Road Cape Elizabeth, ME 04107",U38,43.5736804,-70.2087309,418200,1066700,9343,11459
"7 Charles Road Cape Elizabeth, ME 04107",U01,43.6327913,-70.2272913,210100,738600,4694,7850
"7 Columbus Road Cape Elizabeth, ME 04107",U32,43.6209781,-70.2348113,216700,553700,4841,5816
"7 Cove View Road Cape Elizabeth, ME 04107",U56,43.570666,-70.2106131,679100,1649900,15171,17874
"7 Cragmoor Cape Elizabeth, ME 04107",U02,43.6317033,-70.2203569,3955400,6463600,88364,71100
"7 Crescent View Ave Cape Elizabeth, ME 04107",U16,43.5686191,-70.2224657,428500,817300,9573,8715
"7 Cross Hill Road Cape Elizabeth, ME 04107",U58,43.5937868,-70.2549221,576300,1343900,12875,14508
"7 Dean Way Cape Elizabeth, ME 04107",U18,43.5750008,-70.2182969,226800,641800,5067,6785
"7 Dearborn Drive Cape Elizabeth, ME 04107",U22,43.5963639,-70.2355589,210700,576400,4707,6340
"7 Dyer Lane Cape Elizabeth, ME 04107",U15,43.5629555,-70.2004783,986700,2435400,22043,26789
"7 Dyer Pond Road Cape Elizabeth, ME 04107",U51,43.6162584,-70.2168279,694500,1255300,15515,13533
"7 Eastfield Road Cape Elizabeth, ME 04107",U42,43.5832433,-70.2151277,257900,660800,5761,6994
"7 Eastman Road Cape Elizabeth, ME 04107",U27,43.6091194,-70.2507056,368100,749300,8223,7967
"7 Edgecomb Way Cape Elizabeth, ME 04107",U26,43.6149285,-70.2455388,461300,915000,10305,9790
"7 Elmwood Road Cape Elizabeth, ME 04107",U03,43.6317582,-70.2265657,204800,685800,4575,7269
"7 Farm Hill Road Cape Elizabeth, ME 04107",U21,43.5947003,-70.233453,196000,483500,4379,5319
"7 Fenway Road Cape Elizabeth, ME 04107",U44,43.5800733,-70.2333851,205400,513100,4589,5369
"7 Fernwood Lane Cape Elizabeth, ME 04107",U34,43.6320893,-70.2327808,530200,922200,11845,10144
"7 Fessenden Road Cape Elizabeth, ME 04107",U39,43.5645471,-70.2166747,230400,421000,5147,4631
"7 Fieldstone Road Cape Elizabeth, ME 04107",U23,43.599156,-70.2331602,271800,628000,6072,6908
"7 Fowler Road Cape Elizabeth, ME 04107",U20,43.5897641,-70.2269353,194700,509200,4350,5326
"7 Fox Hill Road Cape Elizabeth, ME 04107",U24,43.6063453,-70.2312873,534500,847600,11941,8913
"7 Gladys Road Cape Elizabeth, ME 04107",U19,43.580906,-70.2275229,259600,588500,5799,6199
"7 Glos Way Cape Elizabeth, ME 04107",U49,43.621026,-70.242462,774400,1414200,17300,14874
"7 Granite Ridge Road Cape Elizabeth, ME 04107",U50,43.6191057,-70.2260452,1250800,2273200,27942,24456
"7 Graystone Road Cape Elizabeth, ME 04107",U50,43.6149695,-70.2296925,858200,2028800,19172,21766
"7 Great Pond Drive Cape Elizabeth, ME 04107",R06,43.5815389,-70.2320866,322400,707200,7202,7230
"7 Hamlin Street Cape Elizabeth, ME 04107",U29,43.6224421,-70.2429735,966000,1626200,21580,17338
"7 Hampton Road Cape Elizabeth, ME 04107",U19,43.5829223,-70.2280753,459600,1199200,10268,12642
"7 Hawthorn Road Cape Elizabeth, ME 04107",U59,43.599428,-70.2631232,826200,1825200,18457,19802
"7 Headland Lane Cape Elizabeth, ME 04107",U49,43.6194954,-70.2421058,345300,704600,7714,7476
"7 High Bluff Road Cape Elizabeth, ME 04107",U04,43.6262518,-70.2237434,281100,822100,6280,8768
"7 Hillcrest Drive Cape Elizabeth, ME 04107",U10,43.6016501,-70.218082,285500,670500,6378,7101
"7 Hunts Point Road Cape Elizabeth, ME 04107",U38,43.5739686,-70.2041231,762700,1993500,17039,21654
"7 Island View Road Cape Elizabeth, ME 04107",U03,43.6316984,-70.223976,331700,853300,7410,9111
"7 Ivie Road Cape Elizabeth, ME 04107",U04,43.6261402,-70.2223229,360200,995000,8047,10670
"7 Jewett Road Cape Elizabeth, ME 04107",U19,43.583228,-70.2291982,174900,514900,3907,5389
"7 Julie Ann Lane Cape Elizabeth, ME 04107",U11,43.59925,-70.224478,175500,1917400,3921,21091
"7 Juniper Lane Cape Elizabeth, ME 04107",U23,43.5988262,-70.2347565,258400,574900,5773,6324
"7 Katahdin Road Cape Elizabeth, ME 04107",U12,43.5801781,-70.2101016,273400,728400,6108,7737
"7 Kettle Cove Road Cape Elizabeth, ME 04107",U16,43.5691338,-70.2216841,345600,822500,7721,8707
"7 Ledgewood Lane Cape Elizabeth, ME 04107",U36,43.5764095,-70.211051,452700,1542400,10113,16625
"7 Leighton Farm Road Cape Elizabeth, ME 04107",R05,43.5948606,-70.2531442,440200,872500,9834,9323
"7 Lighthouse Point Road Cape Elizabeth, ME 04107",U14,43.5657965,-70.2029147,496700,1161800,11096,12780
"7 Lindenwood Road Cape Elizabeth, ME 04107",U04,43.6287076,-70.2239034,293400,760200,6555,8087
"7 Locksley Road Cape Elizabeth, ME 04107",U06,43.6224606,-70.2226179,416500,824500,9305,9070
"7 Longfellow Drive Cape Elizabeth, ME 04107",U21,43.5952121,-70.2366477,184600,479500,4124,5000
"7 Manor Way Cape Elizabeth, ME 04107",U30,43.6113678,-70.221442,544200,1288100,12157,14169
"7 Maple Lane Cape Elizabeth, ME 04107",U23,43.6001015,-70.2337735,293500,635600,6557,6992
"7 Maxwell Woods Drive Cape Elizabeth, ME 04107",U29,43.619039,-70.244031,339900,267500,7593,2668
"7 Mcauley Road Cape Elizabeth, ME 04107",U49,43.6227451,-70.2376251,257500,583300,5753,6141
"7 Misty Lane Cape Elizabeth, ME 04107",U36,43.5764279,-70.2131103,376600,1150300,8413,12378
"7 Montgomery Terrace Cape Elizabeth, ME 04107",U02,43.632773,-70.2246054,604500,1423900,13505,15663
"7 Mountain View Road Cape Elizabeth, ME 04107",U03,43.6316446,-70.2252667,454400,982500,10151,10533
"7 Oakview Drive Cape Elizabeth, ME 04107",U25,43.6074984,-70.2360375,150400,340000,3360,3465
"7 Ocean Avenue Cape Elizabeth, ME 04107",U17,43.5681648,-70.2236164,549900,1001200,12285,10738
"7 Ocean House Road Cape Elizabeth, ME 04107",U28,43.6213525,-70.2489841,374400,966000,8364,10626
"7 Odyssey Lane Cape Elizabeth, ME 04107",R09,43.5887691,-70.2356288,5277600,11178800,117900,122964
"7 Old Farm Lane Cape Elizabeth, ME 04107",U34,43.6288928,-70.236061,1107800,1859800,24748,20458
"7 Olde Colony Lane Cape Elizabeth, ME 04107",U09,43.6079669,-70.2189548,307200,703500,6863,7739
"7 Olde Fort Road Cape Elizabeth, ME 04107",U06,43.6228859,-70.2181846,344000,746800,7685,8215
"7 Orchard Road Cape Elizabeth, ME 04107",U21,43.5948664,-70.2353993,178900,458800,3997,4772
"7 Overlook Lane Cape Elizabeth, ME 04107",U12,43.5835653,-70.2098561,807700,1175200,18044,12927
"7 Park Circle Cape Elizabeth, ME 04107",U54,43.5980344,-70.2739195,598600,1315000,13373,14190
"7 Patricia Drive Cape Elizabeth, ME 04107",U35,43.5957939,-70.2404392,218600,506500,4884,5297
"7 Peabbles Point Lane Cape Elizabeth, ME 04107",R03,43.587573,-70.2065764,656100,1849700,14657,20347
"7 Penwood Circle Cape Elizabeth, ME 04107",U35,43.5967372,-70.2402835,273500,603500,6110,6639
"7 Peppergrass Road Cape Elizabeth, ME 04107",U60,43.600671,-70.254704,219800,551600,4910,6068
"7 Pheasant Hill Road Cape Elizabeth, ME 04107",R04,43.6028155,-70.2469052,254600,545900,5688,5730
"7 Philip Road Cape Elizabeth, ME 04107",U22,43.5962503,-70.2346984,262500,553000,5864,5808
"7 Pilot Point Road Cape Elizabeth, ME 04107",U12,43.578885,-70.2101728,573400,1243700,12810,13406
"7 Pine Point Road Cape Elizabeth, ME 04107",U35,43.5998246,-70.2376286,291600,601700,6514,6344
"7 Pine Ridge Road Cape Elizabeth, ME 04107",U36,43.5742524,-70.2097766,330500,900300,7383,9628
"7 Pleasant Avenue Cape Elizabeth, ME 04107",U27,43.6115178,-70.2502231,190400,543000,4254,5632
"7 Point Road Cape Elizabeth, ME 04107",U08,43.6093898,-70.2135797,1432800,3120800,32009,34329
"7 Pond View Road Cape Elizabeth, ME 04107",U18,43.5750998,-70.2221257,240100,598300,5364,6581
"7 Quartz Knob Road Cape Elizabeth, ME 04107",U57,43.6166222,-70.2278602,525300,1300100,11735,14301
"7 Ram Island Farm Road Cape Elizabeth, ME 04107",R09,43.5580398,-70.2605687,414300,700900,9255,7710
"7 Reef Road Cape Elizabeth, ME 04107",U13,43.5848412,-70.2067176,498900,948900,11145,10163
"7 Robinhood Road Cape Elizabeth, ME 04107",U06,43.6233668,-70.2207674,369000,829000,8243,8844
"7 Rock Wall Lane Cape Elizabeth, ME 04107",U04,43.6248132,-70.2266284,398100,788100,8894,8328
"7 Rocky Hill Road Cape Elizabeth, ME 04107",U04,43.6255902,-70.2213536,218000,679500,4870,7200
"7 Rocky Knoll Road Cape Elizabeth, ME 04107",U04,43.6275433,-70.2253672,237300,757000,5301,8327
"7 Rocky Point Lane Cape Elizabeth, ME 04107",U14,43.5700514,-70.2018936,396800,1038500,8865,11424
"7 Roundabout Lane Cape Elizabeth, ME 04107",U36,43.5753156,-70.2099239,599400,1083100,13391,11639
"7 Running Tide Road Cape Elizabeth, ME 04107",U38,43.5702584,-70.2038846,663500,1724500,14823,18695
"7 Russet Lane Cape Elizabeth, ME 04107",U35,43.5967916,-70.2374429,196700,471800,4394,5190
"7 Salt Spray Lane Cape Elizabeth, ME 04107",U36,43.5765653,-70.2090899,543600,1349200,12144,14841
"7 Scott Dyer Road Cape Elizabeth, ME 04107",U22,43.5964467,-70.2301388,859200,1495400,19195,16306
"7 Sea View Avenue Cape Elizabeth, ME 04107",U02,43.6327901,-70.2234303,392500,1163200,8768,12454
"7 Silva Drive Cape Elizabeth, ME 04107",U46,43.6012015,-70.2645371,224700,567100,5020,5963
"7 Singles Road Cape Elizabeth, ME 04107",U08,43.6155403,-70.2112938,1413600,2992100,31580,32913
"7 Smugglers Cove Road Cape Elizabeth, ME 04107",U10,43.6037587,-70.2161548,426600,469200,9530,5161
"7 Southwell Road Cape Elizabeth, ME 04107",U33,43.6224841,-70.2365917,214300,533200,4787,5590
"7 Spoondrift Lane Cape Elizabeth, ME 04107",U36,43.5775467,-70.2127729,384900,1117300,8599,12290
"7 Starboard Drive Cape Elizabeth, ME 04107",U45,43.5913176,-70.2442617,171400,321800,3829,3265
"7 State Avenue Cape Elizabeth, ME 04107",U28,43.6203177,-70.2496455,155600,526200,3476,5513
"7 Steeplebush Road Cape Elizabeth, ME 04107",U58,43.5949042,-70.2547253,595700,1541900,13308,16686
"7 Stephenson Street Cape Elizabeth, ME 04107",U29,43.6235746,-70.2430707,274400,677600,6130,7179
"7 Stone Bridge Road Cape Elizabeth, ME 04107",U30,43.6071949,-70.2259614,594600,1069800,13283,11493
"7 Susan Road Cape Elizabeth, ME 04107",U43,43.577362,-70.2419422,224400,558800,5013,6147
"7 Sweet Fern Road Cape Elizabeth, ME 04107",U19,43.5820304,-70.2262637,169800,482700,3793,5035
"7 Sweetsir Road Cape Elizabeth, ME 04107",U19,43.5834586,-70.2330239,358400,878100,8007,9384
"7 Tall Pine Road Cape Elizabeth, ME 04107",U23,43.5985791,-70.2356199,229200,536000,5120,5621
"7 Tanager Lane Cape Elizabeth, ME 04107",R04,43.6093764,-70.2579628,293600,746200,6559,8142
"7 Tiger Lily Lane Cape Elizabeth, ME 04107",U60,43.5994669,-70.2583112,948700,1723200,21194,18955
"7 Todd Road Cape Elizabeth, ME 04107",U10,43.6008705,-70.21888,315700,708400,7053,7792
"7 Tote Road Cape Elizabeth, ME 04107",U27,43.6111737,-70.2514215,410100,877000,9162,9372
"7 Valley Road Cape Elizabeth, ME 04107",U27,43.6143222,-70.2502925,331400,630600,7403,6937
"7 Wabun Road Cape Elizabeth, ME 04107",U12,43.5820361,-70.208098,275500,649400,6155,7143
"7 Wainwright Drive Cape Elizabeth, ME 04107",U52,43.5924184,-70.2476988,471300,996200,10529,10617
"7 Warbler Drive Cape Elizabeth, ME 04107",R04,43.6087531,-70.2589362,305700,782800,6829,8336
"7 Wentworth Road Cape Elizabeth, ME 04107",U18,43.5761819,-70.223374,266600,647900,5956,6852
"7 Westfield Road Cape Elizabeth, ME 04107",U42,43.5819222,-70.2171522,217500,524700,4859,5497
"7 Wildwood Drive Cape Elizabeth, ME 04107",U24,43.605536,-70.240249,216000,597700,4825,6300
"7 Wilton Lane Cape Elizabeth, ME 04107",U28,43.6187586,-70.2516966,222200,539100,4964,5655
"7 Winding Way Cape Elizabeth, ME 04107",U38,43.5687768,-70.2071828,562000,1363500,12555,14999
"7 Winslow Place Cape Elizabeth, ME 04107",U30,43.6119533,-70.233371,172200,364400,3847,4008
"8 Abaco Drive Cape Elizabeth, ME 04107",U33,43.6255856,-70.2292434,487100,1162700,10882,12790
"8 Alexander Drive Cape Elizabeth, ME 04107",R04,43.6109737,-70.2536061,406600,911000,9083,9746
"8 Algonquin Road Cape Elizabeth, ME 04107",U12,43.5805384,-70.2094847,334500,722800,7473,7676
"8 Apple Tree Lane Cape Elizabeth, ME 04107",U58,43.5932442,-70.2570063,510800,1064000,11411,11429
"8 Arrow Point Road Cape Elizabeth, ME 04107",U04,43.6275909,-70.2263917,349000,988900,7797,10878
"8 Aster Lane Cape Elizabeth, ME 04107",U49,43.6232637,-70.2419908,423400,1048900,9459,11081
"8 Avon Road Cape Elizabeth, ME 04107",U12,43.5803687,-70.2128289,379500,803000,8478,8558
"8 Bay View Road Cape Elizabeth, ME 04107",U03,43.6309938,-70.225021,392300,1130600,8764,12162
"8 Beach Bluff Terrace Cape Elizabeth, ME 04107",U10,43.602032,-70.2177377,266000,712400,5942,7836
"8 Beverly Terrace Cape Elizabeth, ME 04107",U28,43.6380263,-70.2388549,232800,523600,5201,5485
"8 Blueberry Road Cape Elizabeth, ME 04107",U34,43.6328,-70.2340585,419400,797800,9369,8776
"8 Broad Cove Road Cape Elizabeth, ME 04107",U18,43.5738875,-70.2186971,418800,956900,9356,10251
"8 Canterbury Way Cape Elizabeth, ME 04107",U29,43.5992376,-70.2240477,378400,638200,8453,6745
"8 Cape Woods Drive Cape Elizabeth, ME 04107",U33,43.627394,-70.2311672,241600,559000,5397,5874
"8 Carriage Hill Road Cape Elizabeth, ME 04107",U42,43.5841811,-70.2147426,313400,685100,7001,7261
"8 Channel View Road Cape Elizabeth, ME 04107",U38,43.5734929,-70.2081039,368600,992900,8235,10922
"8 Charles Road Cape Elizabeth, ME 04107",U01,43.6325272,-70.227097,190600,606400,4258,6670
"8 Cherry Circle Cape Elizabeth, ME 04107",U35,43.5969055,-70.2385933,232000,536300,5183,5624
"8 Cheverus Road Cape Elizabeth, ME 04107",U33,43.6219079,-70.2353828,142300,486700,3179,5079
"8 Clinton Road Cape Elizabeth, ME 04107",U24,43.6037094,-70.2335637,203900,494700,4555,5442
"8 Cole Field Cape Elizabeth, ME 04107",U53,43.5985742,-70.2666429,522200,1237700,11666,13615
"8 Cottage Farms Road Cape Elizabeth, ME 04107",U03,43.6322832,-70.225483,310300,806100,6932,8592
"8 Cove View Road Cape Elizabeth, ME 04107",U56,43.571534,-70.211721,143600,397300,3208,4370
"8 Crescent View Ave Cape Elizabeth, ME 04107",U16,43.5679907,-70.22223,294000,655400,6568,7209
"8 Cross Hill Road Cape Elizabeth, ME 04107",U58,43.5930945,-70.2552072,598000,1319300,13359,14512
"8 Davcarley Road Cape Elizabeth, ME 04107",U25,43.6107389,-70.2383903,180700,548100,4037,5754
"8 Dean Way Cape Elizabeth, ME 04107",U18,43.5753519,-70.2184625,266000,621100,5942,6832
"8 Dipper Road Cape Elizabeth, ME 04107",R04,43.6078775,-70.2569616,319900,776500,7147,8267
"8 Dyer Lane Cape Elizabeth, ME 04107",U15,43.5627551,-70.2006792,744600,1972400,16634,21421
"8 Dyer Pond Road Cape Elizabeth, ME 04107",U51,43.6174201,-70.2188996,741700,1877500,16570,20653
"8 Eastfield Road Cape Elizabeth, ME 04107",U42,43.5829531,-70.2146466,269200,668400,6014,7352
"8 Eastman Road Cape Elizabeth, ME 04107",U27,43.6086272,-70.2507446,210200,510200,4696,5612
"8 Elmwood Road Cape Elizabeth, ME 04107",U03,43.631413,-70.2265506,274300,893000,6128,9823
"8 Evergreen Circle Cape Elizabeth, ME 04107",U35,43.5971607,-70.2379022,261000,533300,5831,5591
"8 Farm Hill Road Cape Elizabeth, ME 04107",U21,43.5946812,-70.2329541,194700,464200,4350,5106
"8 Farms Edge Road Cape Elizabeth, ME 04107",U53,43.594599,-70.2674397,437700,964600,9778,10336
"8 Fenway Road Cape Elizabeth, ME 04107",U44,43.5799218,-70.2337493,249900,562900,5583,6192
"8 Fox Hill Road Cape Elizabeth, ME 04107",U24,43.6071465,-70.2307818,606100,841700,13540,9259
"8 Gladys Road Cape Elizabeth, ME 04107",U19,43.5814622,-70.2267059,262400,566300,5862,5954
"8 Golden Ridge Lane Cape Elizabeth, ME 04107",U17,43.5719034,-70.2243806,685000,1874000,15302,20064
"8 Granite Ridge Road Cape Elizabeth, ME 04107",U50,43.6198101,-70.2257867,1316000,2482000,29400,26752
"8 Great Pond Drive Cape Elizabeth, ME 04107",R06,43.5815397,-70.2319191,349600,707200,7810,7780
"8 Hamlin Street Cape Elizabeth, ME 04107",U29,43.6229499,-70.2429572,668600,1541800,14936,16410
"8 Hampton Road Cape Elizabeth, ME 04107",U19,43.5828742,-70.2285522,440800,1069400,9848,11214
"8 Hannaford Cove Road Cape Elizabeth, ME 04107",U40,43.5633436,-70.2117252,313400,708100,7001,7789
"8 Headland Lane Cape Elizabeth, ME 04107",U49,43.619437,-70.2413195,368400,710400,8230,7814
